SALE TYPE,SOLD DATE,PROPERTY TYPE,ADDRESS,CITY,STATE OR PROVINCE,ZIP OR POSTAL CODE,PRICE,BEDS,BATHS,LOCATION,SQUARE FEET,LOT SIZE,YEAR BUILT,DAYS ON MARKET,$/SQUARE FEET,HOA/MONTH,STATUS,NEXT OPEN HOUSE START TIME,NEXT OPEN HOUSE END TIME,URL (SEE http://www.redfin.com/buy-a-home/comparative-market-analysis FOR INFO ON PRICING),SOURCE,MLS#,FAVORITE,INTERESTED,LATITUDE,LONGITUDE
MLS Listing,,Condo/Co-op,4800 S Saint Lawrence Ave Unit 2S,Chicago,IL,60615,249900,3,2.0,CHI - Grand Boulevard,1700,,2003,1,147,243,Active,October-9-2021 10:00 AM,October-9-2021 12:00 PM,http://www.redfin.com/IL/Chicago/4800-S-St-Lawrence-Ave-60615/unit-2S/home/18912524,MRED,11240203,N,Y,41.8074865,-87.6117533
MLS Listing,,Single Family Residential,3606 W 68th St,Chicago,IL,60638,249900,4,2.0,CHI - West Lawn,1877,6229,1926,2,133,,Active,,,http://www.redfin.com/IL/Chicago/3606-W-68th-St-60629/home/176651532,MRED,11227405,N,Y,41.7698733,-87.7131437
MLS Listing,,Multi-Family (2-4 Unit),5015 S Talman Ave,Chicago,IL,60632,317000,7,2.0,CHI - Gage Park,,3484,1927,11,,,Active,October-9-2021 03:00 PM,October-9-2021 04:30 PM,http://www.redfin.com/IL/Chicago/5015-S-Talman-Ave-60632/unit-1/home/14017966,MRED,11220908,N,Y,41.8023836,-87.6901078
MLS Listing,,Condo/Co-op,4902 S Vincennes Ave #2,Chicago,IL,60615,270000,3,2.0,CHI - Grand Boulevard,1536,,2007,38,176,305,Active,,,http://www.redfin.com/IL/Chicago/4902-S-Vincennes-Ave-60615/unit-2/home/26796190,MRED,11191985,N,Y,41.8055422,-87.6142069
MLS Listing,,Multi-Family (2-4 Unit),7940 S Peoria St,Chicago,IL,60620,290000,5,2.0,CHI - Auburn Gresham,,3920,1908,42,,,Active,,,http://www.redfin.com/IL/Chicago/7940-S-Peoria-St-60620/unit-1/home/13906154,MRED,11194506,N,Y,41.7493635,-87.6468407
MLS Listing,,Condo/Co-op,5404 S Michigan Ave Unit 2N,Chicago,IL,60615,285000,3,2.0,CHI - Washington Park,2200,,,63,130,355,Active,,,http://www.redfin.com/IL/Chicago/5404-S-Michigan-Ave-60615/unit-2N/home/12691870,MRED,11173857,N,Y,41.796324,-87.6229957
MLS Listing,,Condo/Co-op,5471 S Hyde Park Blvd Unit 11B,Chicago,IL,60615,249990,3,2.0,CHI - Hyde Park,1700,,1968,105,147,1086,Active,October-9-2021 12:00 PM,October-9-2021 02:00 PM,http://www.redfin.com/IL/Chicago/5471-S-Hyde-Park-Blvd-60615/unit-11B/home/13946651,MRED,11114300,N,Y,41.7961296,-87.5837119
Redfin Data,,Condo/Co-op,5555 S Everett Ave Unit D10,Chicago,IL,60637,272990,3,2.0,Chicago,2000,,1922,1,136,1827,Pre On-Market,,,http://www.redfin.com/IL/Chicago/5555-S-Everett-Ave-60637/unit-D10/home/145590838,Coming Soon,77531,N,Y,41.7938012,-87.581985
MLS Listing,,Single Family Residential,3242 W 85th St,Chicago,IL,60652,220000,3,1.0,CHI - Ashburn,1299,4373,1954,1,169,,Active,,,http://www.redfin.com/IL/Chicago/3242-W-85th-St-60652/home/13965657,MRED,11241994,N,Y,41.7390467,-87.7038098
MLS Listing,,Condo/Co-op,6712 S Ridgeland Ave Unit 2A,Chicago,IL,60649,85000,1,1.0,CHI - South Shore,950,,1918,1,89,,Active,,,http://www.redfin.com/IL/Chicago/6712-S-Ridgeland-Ave-60649/unit-2A/home/28523927,MRED,11241993,N,Y,41.7731,-87.582884
MLS Listing,,Single Family Residential,1803 W 58th St,Chicago,IL,60636,139900,4,2.0,CHI - West Englewood,1086,,1915,1,129,,Active,,,http://www.redfin.com/IL/Chicago/1803-W-58th-St-60636/home/13938416,MRED,11241973,N,Y,41.7882857,-87.6695752
MLS Listing,,Multi-Family (2-4 Unit),8409 S Burley Ave,Chicago,IL,60617,145000,4,2.0,Busch,,,1952,1,,,Active,,,http://www.redfin.com/IL/Chicago/8409-S-Burley-Ave-60617/home/13212803,MRED,11241972,N,Y,41.7425802,-87.5452062
MLS Listing,,Condo/Co-op,5220 S Michigan Ave #2,Chicago,IL,60615,179900,3,2.0,CHI - Washington Park,1200,,2005,1,150,,Active,,,http://www.redfin.com/IL/Chicago/5220-S-Michigan-Ave-60615/unit-2/home/26824437,MRED,11241952,N,Y,41.7995078,-87.6229957
MLS Listing,,Vacant Land,3408 W 84th St,Chicago,IL,60652,79900,,,CHI - Ashburn,,,,1,,,Active,,,http://www.redfin.com/IL/Chicago/3408-W-84th-St-60652/home/22672471,MRED,11241912,N,Y,41.7408462,-87.7074244
MLS Listing,,Multi-Family (2-4 Unit),8017 S Maryland Ave S,Chicago,IL,60619,313000,9,6.0,CHI - Chatham,,,1927,1,,,Active,,,http://www.redfin.com/IL/Chicago/8017-S-Maryland-Ave-60619/unit-2205A/home/13223420,MRED,11241890,N,Y,41.7488984,-87.6035899
MLS Listing,,Single Family Residential,9933 S Oakley Ave,Chicago,IL,60643,415000,3,2.5,CHI - Beverly,1508,5279,1943,1,275,,Active,October-24-2021 01:00 PM,October-24-2021 03:00 PM,http://www.redfin.com/IL/Chicago/9933-S-Oakley-Ave-60643/home/13097117,MRED,11241889,N,Y,41.7126683,-87.6791377
MLS Listing,,Multi-Family (2-4 Unit),824 E 89th St,Chicago,IL,60619,235000,5,2.0,CHI - Chatham,,,2009,1,,,Active,,,http://www.redfin.com/IL/Chicago/824-E-89th-St-60619/home/21759551,MRED,11241887,N,Y,41.7332368,-87.6036138
MLS Listing,,Townhouse,7858 S South Shore Dr Unit G,South Shore,IL,60649,75000,2,1.0,South Shore,1040,,1951,1,72,200,Active,,,http://www.redfin.com/IL/Chicago/7858-S-South-Shore-Dr-60649/unit-G/home/13215653,MRED,11241873,N,Y,41.7524958,-87.54926
MLS Listing,,Single Family Residential,5228 S Maplewood Ave,Chicago,IL,60632,249900,4,1.0,CHI - Gage Park,1400,,1912,1,179,,Active,,,http://www.redfin.com/IL/Chicago/5228-S-Maplewood-Ave-60632/home/14017108,MRED,11241819,N,Y,41.7983759,-87.6880724
MLS Listing,,Multi-Family (2-4 Unit),6832 S Dorchester Ave,Chicago,IL,60637,279900,6,2.0,CHI - South Shore,,,1903,1,,,Active,,,http://www.redfin.com/IL/Chicago/6832-S-Dorchester-Ave-60637/home/13926633,MRED,11241804,N,Y,41.7704923,-87.5914308
MLS Listing,,Vacant Land,1158 W Garfield Blvd,Chicago,IL,60609,759000,,,CHI - New City,,31363,,1,,,Active,,,http://www.redfin.com/IL/Chicago/1158-W-Garfield-Blvd-60621/home/17558242,MRED,11241786,N,Y,41.7944737,-87.6545742
MLS Listing,,Condo/Co-op,543 E 60th St #1,Chicago,IL,60637,126000,2,1.0,CHI - Woodlawn,900,,1925,1,140,,Active,,,http://www.redfin.com/IL/Chicago/543-E-60th-St-60637/unit-1/home/39579625,MRED,11241784,N,Y,41.7854788,-87.6115862
MLS Listing,,Condo/Co-op,2509 E 76th St SE #3,Chicago,IL,60649,100000,2,2.0,CHI - South Shore,1100,,2006,1,91,240,Active,,,http://www.redfin.com/IL/Chicago/2509-E-76th-St-60649/unit-3/home/18937157,MRED,11241774,N,Y,41.7570023,-87.5635681
MLS Listing,,Multi-Family (2-4 Unit),1409 W 71st St,Chicago,IL,60636,339000,6,3.0,CHI - West Englewood,,3484,1917,1,,,Active,,,http://www.redfin.com/IL/Chicago/1409-W-71st-St-60636/unit-1/home/13916447,MRED,11241646,N,Y,41.7648367,-87.6594325
MLS Listing,,Townhouse,4856 S Champlain Ave Unit 3N,Chicago,IL,60615,360000,3,3.0,CHI - Grand Boulevard,2600,,2002,1,138,372,Active,,,http://www.redfin.com/IL/Chicago/4856-S-Champlain-Ave-60615/unit-3N/home/39597778,MRED,11241578,N,Y,41.8060604,-87.6104397
MLS Listing,,Single Family Residential,8154 S Throop St,Chicago,IL,60620,299900,5,2.0,CHI - Auburn Gresham,4081,3998,,1,73,,Active,,,http://www.redfin.com/IL/Chicago/8154-S-Throop-St-60620/home/13906404,MRED,11241520,N,Y,41.7452436,-87.6563597
MLS Listing,,Multi-Family (2-4 Unit),4943 S Komensky Ave,Chicago,IL,60632,414943,5,4.0,CHI - Archer Heights,,,1931,1,,,Active,,,http://www.redfin.com/IL/Chicago/4943-S-Komensky-Ave-60632/home/14022736,MRED,11241515,N,Y,41.8028935,-87.7243612
MLS Listing,,Condo/Co-op,1700 E 56th St #2907,Chicago,IL,60637,260000,1,2.0,CHI - Hyde Park,1250,,1970,1,208,1114,Active,,,http://www.redfin.com/IL/Chicago/1700-E-56th-St-60637/unit-2907/home/13946767,MRED,11241495,N,Y,41.7938289,-87.5832152
MLS Listing,,Single Family Residential,5206 S Millard Ave,Chicago,IL,60632,340000,6,3.0,CHI - West Elsdon,1198,3123,2007,1,284,,Active,,,http://www.redfin.com/IL/Chicago/5206-S-Millard-Ave-60632/home/14019276,MRED,11241483,N,Y,41.7985836,-87.7150392
MLS Listing,,Single Family Residential,7342 S California Ave,Chicago,IL,60629,139900,3,1.0,CHI - Chicago Lawn,,4660,1947,1,,,Active,,,http://www.redfin.com/IL/Chicago/7342-S-California-Ave-60629/home/13985390,MRED,11241470,N,Y,41.7596265,-87.693184
MLS Listing,,Single Family Residential,8743 S Merrill Ave,Chicago,IL,60617,289000,3,2.5,CHI - Calumet Heights,1500,3750,1949,1,193,,Active,,,http://www.redfin.com/IL/Chicago/8743-S-Merrill-Ave-60617/home/13117670,MRED,11241444,N,Y,41.7358357,-87.5717749
MLS Listing,,Single Family Residential,6004 S May St,Chicago,IL,60621,39900,4,3.0,CHI - Englewood,1828,3123,1895,1,22,,Active,,,http://www.redfin.com/IL/Chicago/6004-S-May-St-60621/home/13939498,MRED,11241430,N,Y,41.7848106,-87.6537393
MLS Listing,,Condo/Co-op,1640 E 50th St Unit 17C,Chicago,IL,60615,275000,2,2.0,The Narragansett,1600,,1929,1,172,1526,Active,,,http://www.redfin.com/IL/Chicago/1640-E-50th-St-60615/unit-17C/home/13947871,MRED,11241424,N,Y,41.8046143,-87.5848777
MLS Listing,,Single Family Residential,5544 S Seeley Ave,Chicago,IL,60636,49000,4,1.5,CHI - West Englewood,1040,3123,1923,1,47,,Active,,,http://www.redfin.com/IL/Chicago/5544-S-Seeley-Ave-60636/home/13939771,MRED,11241406,N,Y,41.7921813,-87.6757418
MLS Listing,,Single Family Residential,8526 S Ingleside Ave,Chicago,IL,60619,179900,3,2.0,CHI - Chatham,,3750,1953,1,,,Active,,,http://www.redfin.com/IL/Chicago/8526-S-Ingleside-Ave-60619/home/13222152,MRED,11241399,N,Y,41.7394616,-87.6015401
MLS Listing,,Single Family Residential,8010 S Campbell Ave,Chicago,IL,60652,195000,2,1.5,CHI - Ashburn,1206,,1950,1,162,,Active,,,http://www.redfin.com/IL/Chicago/8010-S-Campbell-Ave-60652/home/13962659,MRED,11241398,N,Y,41.7478149,-87.6855212
MLS Listing,,Single Family Residential,9105 S Oglesby Ave,Chicago,IL,60617,245000,3,1.5,CHI - Calumet Heights,1200,,1963,1,204,,Active,,,http://www.redfin.com/IL/Chicago/9105-S-Oglesby-Ave-60617/home/12558144,MRED,11241374,N,Y,41.7296169,-87.5667461
MLS Listing,,Single Family Residential,7817 S Bishop St,Chicago,IL,60620,90000,5,2.0,CHI - Auburn Gresham,1650,5423,1914,1,55,,Active,,,http://www.redfin.com/IL/Chicago/7817-S-Bishop-St-60620/home/13914012,MRED,11241358,N,Y,41.7516899,-87.6599433
MLS Listing,,Single Family Residential,8511 S Francisco Ave,Chicago,IL,60652,234900,4,2.0,CHI - Ashburn,1200,5039,1955,1,196,,Active,,,http://www.redfin.com/IL/Chicago/8511-S-Francisco-Ave-60652/home/13963023,MRED,11241340,N,Y,41.7388747,-87.6951862
MLS Listing,,Single Family Residential,1462 W 74th St,Chicago,IL,60636,200000,4,1.5,CHI - West Englewood,1200,,1974,1,167,,Active,,,http://www.redfin.com/IL/Chicago/1462-W-74th-St-60636/home/13915005,MRED,11241332,N,Y,41.759752,-87.661225
MLS Listing,,Single Family Residential,8558 S Kostner Ave,Chicago,IL,60652,265000,3,1.0,CHI - Ashburn,1168,,1958,1,227,,Active,,,http://www.redfin.com/IL/Chicago/8558-S-Kostner-Ave-60652/home/13968980,MRED,11241329,N,Y,41.7366403,-87.7314789
MLS Listing,,Condo/Co-op,5331 S Harper Ave #2,Chicago,IL,60615,284900,3,2.0,CHI - Hyde Park,,,1907,1,,460,Active,,,http://www.redfin.com/IL/Chicago/5331-S-Harper-Ave-60615/unit-2/home/12598685,MRED,11241309,N,Y,41.7986963,-87.5883911
MLS Listing,,Single Family Residential,7729 S Rhodes Ave,Chicago,IL,60619,135000,5,2.0,CHI - Greater Grand Crossing,3375,3375,,1,40,,Active,,,http://www.redfin.com/IL/Chicago/7729-S-Rhodes-Ave-60619/home/13917030,MRED,11241264,N,Y,41.7539419,-87.6110686
MLS Listing,,Single Family Residential,5732 S Elizabeth St,Chicago,IL,60636,110000,5,1.5,CHI - West Englewood,1012,,1905,1,109,,Active,,,http://www.redfin.com/IL/Chicago/5732-S-Elizabeth-St-60636/home/13940725,MRED,11241242,N,Y,41.7894911,-87.6562441
MLS Listing,,Single Family Residential,8537 S Ada St,Chicago,IL,60620,265000,5,2.0,CHI - Auburn Gresham,1152,,1927,1,230,,Active,,,http://www.redfin.com/IL/Chicago/8537-S-Ada-St-60620/home/13229352,MRED,11241207,N,Y,41.7383725,-87.6567836
MLS Listing,,Single Family Residential,10045 S Fairfield Ave,Chicago,IL,60655,385000,4,2.5,CHI - Beverly,1307,,1956,1,295,,Active,,,http://www.redfin.com/IL/Chicago/10045-S-Fairfield-Ave-60655/home/13158642,MRED,11241202,N,Y,41.7104669,-87.6900651
MLS Listing,,Single Family Residential,8530 S Morgan St,Chicago,IL,60620,269000,5,2.0,CHI - Auburn Gresham,2000,3123,1926,1,135,,Active,,,http://www.redfin.com/IL/Chicago/8530-S-Morgan-St-60620/home/13228616,MRED,11241191,N,Y,41.7386781,-87.6488834
MLS Listing,,Single Family Residential,630 E 92nd Pl,Chicago,IL,60619,29000,3,1.0,CHI - Chatham,748,,1900,1,39,,Active,,,http://www.redfin.com/IL/Chicago/630-E-92nd-Pl-60619/home/13109163,MRED,11241187,N,Y,41.7267606,-87.6081273
MLS Listing,,Single Family Residential,3613 W 62nd St,Chicago,IL,60629,269000,5,2.0,CHI - West Lawn,1259,3123,1930,1,214,,Active,,,http://www.redfin.com/IL/Chicago/3613-W-62nd-St-60629/home/14009531,MRED,11241177,N,Y,41.7803943,-87.7138173
MLS Listing,,Multi-Family (2-4 Unit),7231 S Emerald Ave,Chicago,IL,60621,379900,8,3.0,CHI - Englewood,,,1907,1,,,Active,,,http://www.redfin.com/IL/Chicago/7231-S-Emerald-Ave-60621/unit-1/home/13916634,MRED,11241139,N,Y,41.7624505,-87.6426393
MLS Listing,,Single Family Residential,7925 S Tripp Ave,Chicago,IL,60652,254999,3,2.0,CHI - Ashburn,1000,,1958,1,255,,Active,October-9-2021 11:00 AM,October-9-2021 02:00 PM,http://www.redfin.com/IL/Chicago/7925-S-Tripp-Ave-60652/home/13971744,MRED,11241123,N,Y,41.7485719,-87.7274778
MLS Listing,,Single Family Residential,8126 S Wentworth Ave,Chicago,IL,60620,248500,4,3.0,CHI - Chatham,1350,4338,1949,1,184,,Active,,,http://www.redfin.com/IL/Chicago/8126-S-Wentworth-Ave-60620/home/13225749,MRED,11241113,N,Y,41.7463677,-87.6296088
MLS Listing,,Single Family Residential,8610 S May St,Chicago,IL,60620,264900,4,1.5,CHI - Auburn Gresham,1050,,1913,1,252,,Active,,,http://www.redfin.com/IL/Chicago/8610-S-May-St-60620/home/13227718,MRED,11241100,N,Y,41.7373642,-87.6525137
MLS Listing,,Single Family Residential,8814 S Buffalo Ave,Chicago,IL,60617,99900,4,1.0,CHI - South Chicago,882,3497,1878,1,113,,Active,,,http://www.redfin.com/IL/Chicago/8814-S-Buffalo-Ave-60617/unit-1/home/13044699,MRED,11241070,N,Y,41.7351353,-87.5446751
MLS Listing,,Single Family Residential,9329 S Wallace St,Chicago,IL,60620,239000,3,2.0,CHI - Washington Heights,1614,,1957,1,148,,Active,October-9-2021 12:00 PM,October-9-2021 01:00 PM,http://www.redfin.com/IL/Chicago/9329-S-Wallace-St-60620/home/13105793,MRED,11241046,N,Y,41.7242696,-87.6381677
MLS Listing,,Single Family Residential,7542 S Ridgeland Ave,Chicago,IL,60649,415000,6,4.0,CHI - South Shore,3500,5588,1920,1,119,,Active,October-9-2021 12:00 PM,October-9-2021 02:00 PM,http://www.redfin.com/IL/Chicago/7542-S-Ridgeland-Ave-60649/home/13924091,MRED,11241044,N,Y,41.7575526,-87.5825061
MLS Listing,,Condo/Co-op,5308 S Kedzie Ave #103,Chicago,IL,60632,125000,3,1.0,CHI - Gage Park,1100,,1971,1,114,355,Active,,,http://www.redfin.com/IL/Chicago/5308-S-Kedzie-Ave-60632/unit-103/home/176675950,MRED,11241029,N,Y,41.7969452,-87.7040039
MLS Listing,,Multi-Family (2-4 Unit),6507 S Rhodes Ave,Chicago,IL,60637,225000,6,3.0,CHI - Woodlawn,,2613,1910,1,,,Active,,,http://www.redfin.com/IL/Chicago/6507-S-Rhodes-Ave-60637/unit-2/home/13929172,MRED,11240998,N,Y,41.7764182,-87.611599
MLS Listing,,Townhouse,9727 S Hoxie Ave,Chicago,IL,60617,119900,2,1.0,CHI - South Deering,938,,1946,1,128,,Active,,,http://www.redfin.com/IL/Chicago/9727-S-Hoxie-Ave-60617/home/13042130,MRED,11240990,N,Y,41.7181899,-87.5609209
MLS Listing,,Single Family Residential,9120 S Normal Ave,Chicago,IL,60620,94900,3,1.0,CHI - Washington Heights,1033,3123,1957,1,92,,Active,,,http://www.redfin.com/IL/Chicago/9120-S-Normal-Ave-60620/home/13106299,MRED,11240980,N,Y,41.728189,-87.6363847
MLS Listing,,Multi-Family (2-4 Unit),,Chicago,IL,60637,340000,10,5.0,CHI - Woodlawn,,,1921,1,,,Active,,,http://www.redfin.com/IL/Chicago/Undisclosed-address-60637/home/13930087,MRED,11240952,N,Y,41.7735562,-87.6103261
MLS Listing,,Multi-Family (2-4 Unit),5243 S California Ave,Chicago,IL,60632,389900,5,3.0,CHI - Gage Park,,,1926,1,,,Active,,,http://www.redfin.com/IL/Chicago/5243-S-California-Ave-60632/home/14016889,MRED,11240904,N,Y,41.797935,-87.6936846
MLS Listing,,Townhouse,6200 S Ingleside Ave Unit 9C,Chicago,IL,60637,305000,3,3.0,Ingleside Court,1400,,2000,1,218,45,Active,,,http://www.redfin.com/IL/Chicago/6200-S-Ingleside-Ave-60637/unit-9C/home/12706676,MRED,11240879,N,Y,41.7819596,-87.6031268
MLS Listing,,Multi-Family (2-4 Unit),9913 S Ewing Ave,Chicago,IL,60617,119000,6,3.0,CHI - East Side,,,1884,1,,,Active,,,http://www.redfin.com/IL/Chicago/9913-S-Ewing-Ave-60617/home/13040661,MRED,11240768,N,Y,41.7154213,-87.5349686
MLS Listing,,Single Family Residential,8059 S Stewart Ave,Chicago,IL,60620,170000,4,2.0,CHI - Chatham,1500,3136,1973,1,113,,Active,,,http://www.redfin.com/IL/Chicago/8059-S-Stewart-Ave-60620/home/13227378,MRED,11230046,N,Y,41.7472726,-87.633927
MLS Listing,,Single Family Residential,9826 S Commercial Ave,Chicago,IL,60617,184900,3,2.0,CHI - South Deering,1840,,1915,1,100,,Active,,,http://www.redfin.com/IL/Chicago/9826-S-Commercial-Ave-60617/home/13039524,MRED,11240676,N,Y,41.7165092,-87.5513477
MLS Listing,,Single Family Residential,7116 S Indiana Ave,Chicago,IL,60619,199450,3,1.0,CHI - Greater Grand Crossing,850,,1909,1,235,,Active,,,http://www.redfin.com/IL/Chicago/7116-S-Indiana-Ave-60619/unit-H/home/13920430,MRED,11240642,N,Y,41.7650626,-87.6203927
MLS Listing,,Single Family Residential,1615 W 85th St,Chicago,IL,60620,59900,3,1.5,CHI - Auburn Gresham,817,3123,1895,1,73,,Active,,,http://www.redfin.com/IL/Chicago/1615-W-85th-St-60620/home/13908939,MRED,11240619,N,Y,41.739179,-87.6639035
MLS Listing,,Single Family Residential,2905 W Seipp St,Chicago,IL,60652,265000,3,1.5,CHI - Ashburn,,,1968,1,,,Active,,,http://www.redfin.com/IL/Chicago/2905-W-Seipp-St-60652/home/13962957,MRED,11240563,N,Y,41.7378221,-87.6950322
MLS Listing,,Multi-Family (2-4 Unit),7605 S Perry Ave,Chicago,IL,60620,200000,4,2.5,CHI - Greater Grand Crossing,,,1925,1,,,Active,,,http://www.redfin.com/IL/Chicago/7605-S-Perry-Ave-60620/home/13915708,MRED,11240558,N,Y,41.7561202,-87.6276423
MLS Listing,,Single Family Residential,10107 S Sangamon St,Chicago,IL,60643,269000,4,2.0,CHI - Washington Heights,2100,3659,1961,1,128,,Active,October-10-2021 12:00 PM,October-10-2021 03:00 PM,http://www.redfin.com/IL/Chicago/10107-S-Sangamon-St-60643/home/13094561,MRED,11240545,N,Y,41.7102039,-87.646301
MLS Listing,,Multi-Family (2-4 Unit),7331 S Michigan Ave,Chicago,IL,60619,389000,6,3.0,CHI - Greater Grand Crossing,,7840,1924,1,,,Active,October-9-2021 01:00 PM,October-9-2021 02:00 PM,http://www.redfin.com/IL/Chicago/7331-S-Michigan-Ave-60619/unit-2/home/13920524,MRED,11220513,N,Y,41.7609991,-87.621164
MLS Listing,,Single Family Residential,10059 S Calumet Ave,Chicago,IL,60628,269500,3,2.5,CHI - Roseland,1333,3541,1937,1,202,,Active,,,http://www.redfin.com/IL/Chicago/10059-S-Calumet-Ave-60628/home/13088915,MRED,11240516,N,Y,41.7110724,-87.6147618
MLS Listing,,Single Family Residential,843 W 51st St,Chicago,IL,60609,70000,3,1.0,CHI - New City,693,,1885,1,101,,Active,,,http://www.redfin.com/IL/Chicago/843-W-51st-St-60609/home/13953936,MRED,11240511,N,Y,41.8013802,-87.6470719
MLS Listing,,Single Family Residential,4831 S Lockwood Ave,Chicago,IL,60638,329000,4,2.0,Stickney,2588,3781,2007,1,127,,Active,October-9-2021 11:00 AM,October-9-2021 01:00 PM,http://www.redfin.com/IL/Chicago/4831-S-Lockwood-Ave-60638/home/14025260,MRED,11239275,N,Y,41.8042738,-87.754968
MLS Listing,,Single Family Residential,635 W 48th St,Chicago,IL,60609,419900,3,3.0,CHI - New City,1512,,2008,1,278,,Active,,,http://www.redfin.com/IL/Chicago/635-W-48th-St-60609/home/18952901,MRED,11240468,N,Y,41.8069064,-87.6420226
MLS Listing,,Single Family Residential,8849 S Washtenaw Ave,Evergreen Park,IL,60805,279900,3,2.0,Evergreen Park,2000,7440,1961,1,140,,Active,,,http://www.redfin.com/IL/Evergreen-Park/8849-S-Washtenaw-Ave-60805/home/13187171,MRED,11240467,N,Y,41.7321529,-87.689526
MLS Listing,,Single Family Residential,8600 S Kildare Ave,Chicago,IL,60652,349900,4,3.0,CHI - Ashburn,1803,,1963,1,194,,Active,,,http://www.redfin.com/IL/Chicago/8600-S-Kildare-Ave-60652/home/13967703,MRED,11240439,N,Y,41.7363997,-87.7291321
MLS Listing,,Single Family Residential,9637 S Exchange Ave E,Chicago,IL,60617,149999,4,1.0,CHI - South Deering,1100,,1885,1,136,,Active,October-10-2021 01:00 PM,October-10-2021 03:00 PM,http://www.redfin.com/IL/Chicago/9637-S-Exchange-Ave-60617/home/13041867,MRED,11240385,N,Y,41.7198013,-87.5521105
MLS Listing,,Multi-Family (2-4 Unit),918 W 53rd St,Chicago,IL,60609,179000,5,2.0,CHI - New City,,3049,1883,1,,,Active,,,http://www.redfin.com/IL/Chicago/918-W-53rd-St-60609/home/13952870,MRED,11240304,N,Y,41.7980258,-87.6484678
MLS Listing,,Single Family Residential,9247 S Ada St,Chicago,IL,60620,249900,5,2.0,CHI - Washington Heights,2082,3876,1923,1,120,,Active,,,http://www.redfin.com/IL/Chicago/9247-S-Ada-St-60620/home/13102598,MRED,11240279,N,Y,41.7253423,-87.6564368
MLS Listing,,Single Family Residential,7523 S Chappel Ave,Chicago,IL,60649,349000,4,2.5,CHI - South Shore,2274,4199,1905,1,153,,Active,,,http://www.redfin.com/IL/Chicago/7523-S-Chappel-Ave-60649/home/13923395,MRED,11240270,N,Y,41.7580866,-87.5746316
MLS Listing,,Single Family Residential,7208 S Evans Ave,Chicago,IL,60619,199000,5,1.5,CHI - Greater Grand Crossing,1702,3123,1904,1,117,,Active,,,http://www.redfin.com/IL/Chicago/7208-S-Evans-Ave-60619/home/13918669,MRED,11240212,N,Y,41.7636977,-87.6070086
MLS Listing,,Single Family Residential,8805 S Racine Ave,Chicago,IL,60620,285000,5,2.5,CHI - Auburn Gresham,2500,,1958,1,114,,Active,,,http://www.redfin.com/IL/Chicago/8805-S-Racine-Ave-60620/home/13104851,MRED,11240157,N,Y,41.733788,-87.6529271
MLS Listing,,Multi-Family (2-4 Unit),7209 S Campbell Ave,Chicago,IL,60629,249900,9,3.0,CHI - Chicago Lawn,,4791,1955,1,,,Active,,,http://www.redfin.com/IL/Chicago/7209-S-Campbell-Ave-60629/unit-1/home/13985834,MRED,11240147,N,Y,41.7625005,-87.6853671
MLS Listing,,Multi-Family (2-4 Unit),6639 S Sangamon St,Chicago,IL,60621,239900,5,2.0,CHI - Englewood,,,1902,1,,,Active,,,http://www.redfin.com/IL/Chicago/6639-S-Sangamon-St-60621/home/13932819,MRED,11240128,N,Y,41.7730889,-87.6480355
MLS Listing,,Single Family Residential,9912 S Bell Ave,Chicago,IL,60643,384900,2,3.0,CHI - Beverly,1590,7840,1923,1,242,,Active,,,http://www.redfin.com/IL/Chicago/9912-S-Bell-Ave-60643/home/13097848,MRED,11240120,N,Y,41.7132286,-87.6784733
MLS Listing,,Single Family Residential,8948 S Emerald Ave,Chicago,IL,60620,210000,3,2.0,CHI - Auburn Gresham,,3149,1907,1,,,Active,,,http://www.redfin.com/IL/Chicago/8948-S-Emerald-Ave-60620/unit-1/home/13108363,MRED,11240113,N,Y,41.7311235,-87.6425237
MLS Listing,,Condo/Co-op,1356 E Hyde Park Blvd #2,Chicago,IL,60615,350000,6,3.0,CHI - Kenwood,4000,,1915,2,88,650,Active,,,http://www.redfin.com/IL/Chicago/1356-E-Hyde-Park-Blvd-60615/unit-2/home/13949673,MRED,11228877,N,Y,41.802611,-87.5929827
MLS Listing,,Single Family Residential,9640 S Wallace St,Chicago,IL,60628,155000,4,1.0,CHI - Washington Heights,1035,,1961,2,150,,Active,,,http://www.redfin.com/IL/Chicago/9640-S-Wallace-St-60628/home/13093512,MRED,11240045,N,Y,41.7184848,-87.6385918
MLS Listing,,Single Family Residential,,Chicago,IL,60652,265000,3,1.5,CHI - Ashburn,1474,5279,1973,2,180,,Active,,,http://www.redfin.com/IL/Chicago/Undisclosed-address-60652/home/13982984,MRED,11240037,N,Y,41.7565745,-87.7096606
MLS Listing,,Multi-Family (2-4 Unit),4819 S Keeler Ave,Chicago,IL,60632,340000,5,3.0,CHI - Archer Heights,,,1927,2,,,Active,,,http://www.redfin.com/IL/Chicago/4819-S-Keeler-Ave-60632/home/14022242,MRED,11240033,N,Y,41.8053354,-87.7280934
MLS Listing,,Single Family Residential,7714 S Marquette Ave,Chicago,IL,60649,229000,5,3.0,CHI - South Shore,1587,,1905,2,144,,Active,,,http://www.redfin.com/IL/Chicago/7714-S-Marquette-Ave-60649/home/13217254,MRED,11240034,N,Y,41.7549548,-87.5588014
MLS Listing,,Multi-Family (2-4 Unit),9528 S Avenue N,Chicago,IL,60617,175000,7,3.0,CHI - East Side,,,1900,2,,,Active,,,http://www.redfin.com/IL/Chicago/9528-S-Ave-N-60617/home/13045379,MRED,11240025,N,Y,41.722041,-87.5390639
MLS Listing,,Condo/Co-op,9802 S Karlov Ave Unit C,Oak Lawn,IL,60453,169900,2,2.0,Parkshire Estates,1100,,1971,2,154,230,Active,,,http://www.redfin.com/IL/Oak-Lawn/9802-Karlov-Ave-60453/unit-C/home/13167948,MRED,11240010,N,Y,41.7146564,-87.7238943
MLS Listing,,Single Family Residential,6458 S Lamon Ave,Chicago,IL,60638,344900,3,2.0,CHI - Clearing,1198,3654,1989,2,288,,Active,,,http://www.redfin.com/IL/Chicago/6458-S-Lamon-Ave-60638/home/13994349,MRED,11239999,N,Y,41.7748401,-87.7448938
MLS Listing,,Multi-Family (2-4 Unit),5541 S Peoria St,Chicago,IL,60621,247000,7,2.0,CHI - Englewood,,3484,1905,2,,,Active,October-10-2021 12:00 PM,October-10-2021 12:30 PM,http://www.redfin.com/IL/Chicago/5541-S-Peoria-St-60621/unit-1/home/13941589,MRED,11239956,N,Y,41.792689,-87.6473802
MLS Listing,,Single Family Residential,6932 S Wolcott Ave,Chicago,IL,60636,89000,2,1.5,CHI - West Englewood,1000,3136,1929,2,89,,Active,,,http://www.redfin.com/IL/Chicago/6932-S-Wolcott-Ave-60636/home/13934632,MRED,11239942,N,Y,41.7674551,-87.6714339
MLS Listing,,Multi-Family (2-4 Unit),1018 W Marquette Rd,Chicago,IL,60621,219900,7,3.0,CHI - Englewood,,,,2,,,Active,,,http://www.redfin.com/IL/Chicago/1018-W-Marquette-Rd-60621/home/13932396,MRED,11239939,N,Y,41.7725533,-87.6503479
MLS Listing,,Single Family Residential,6034 S Talman Ave,Chicago,IL,60629,217000,3,1.5,CHI - Chicago Lawn,1451,,1950,2,150,,Active,,,http://www.redfin.com/IL/Chicago/6034-S-Talman-Ave-60629/home/14011769,MRED,11239923,N,Y,41.7836178,-87.6900978
MLS Listing,,Single Family Residential,8627 S Colfax Ave,Chicago,IL,60617,245000,5,2.0,CHI - South Chicago,1577,4373,1919,2,155,,Active,,,http://www.redfin.com/IL/Chicago/8627-S-Colfax-Ave-60617/home/13212756,MRED,11239898,N,Y,41.7382879,-87.5608867
MLS Listing,,Single Family Residential,6910 S Euclid Ave,Chicago,IL,60649,715000,6,3.5,Jackson Park Highlands,3700,6699,1918,2,193,,Active,,,http://www.redfin.com/IL/Chicago/6910-S-Euclid-Ave-60649/home/13927052,MRED,11239858,N,Y,41.7693645,-87.5779321
MLS Listing,,Multi-Family (2-4 Unit),5404 S Mozart St,Chicago,IL,60629,259900,8,2.0,CHI - Gage Park,,,1936,2,,,Active,,,http://www.redfin.com/IL/Chicago/5404-S-Mozart-St-60632/home/14017307,MRED,11239823,N,Y,41.795212,-87.6953787
MLS Listing,,Townhouse,6351 S Long Ave,Chicago,IL,60638,190000,2,1.0,CHI - Clearing,832,,1946,2,228,,Active,,,http://www.redfin.com/IL/Chicago/6351-Long-Ave-60638/home/13995294,MRED,11239806,N,Y,41.7767898,-87.7565804
MLS Listing,,Condo/Co-op,5516 S Indiana Ave #2,Chicago,IL,60637,159900,4,2.0,CHI - Washington Park,1500,,2004,2,107,150,Active,,,http://www.redfin.com/IL/Chicago/5516-S-Indiana-Ave-60637/unit-2/home/18924138,MRED,11239807,N,Y,41.7938011,-87.621292
MLS Listing,,Single Family Residential,8311 S Paxton Ave,Chicago,IL,60617,215900,4,2.0,CHI - South Chicago,1632,3624,1941,2,132,,Active,,,http://www.redfin.com/IL/Chicago/8311-S-Paxton-Ave-60617/home/13218141,MRED,11239798,N,Y,41.7440149,-87.5707325
MLS Listing,,Multi-Family (2-4 Unit),7027 S Washtenaw Ave,Chicago,IL,60029,229900,6,2.0,CHI - Chicago Lawn,,,1925,2,,,Active,,,http://www.redfin.com/IL/Chicago/7027-S-Washtenaw-Ave-60629/home/26831910,MRED,11239786,N,Y,41.7655529,-87.6903347
MLS Listing,,Multi-Family (2-4 Unit),8107 S South Shore Dr,Chicago,IL,60617,299000,5,2.0,CHI - South Chicago,,36590,1923,2,,,Active,,,http://www.redfin.com/IL/Chicago/8107-S-South-Shore-Dr-60617/unit-2/home/12557209,MRED,11239767,N,Y,41.7480737,-87.5476784
MLS Listing,,Multi-Family (2-4 Unit),7614 S Lowe Ave,Chicago,IL,60620,295000,7,2.0,CHI - Auburn Gresham,,,1900,2,,,Active,,,http://www.redfin.com/IL/Chicago/7614-S-Lowe-Ave-60620/home/13915642,MRED,11239720,N,Y,41.7555748,-87.6408276
MLS Listing,,Condo/Co-op,,Chicago,IL,60619,42500,1,1.0,CHI - Chatham,1000,,,2,43,,Active,,,http://www.redfin.com/IL/Chicago/Undisclosed-address-60619/home/176652647,MRED,11239710,N,Y,41.7459409,-87.6029562
MLS Listing,,Townhouse,9712 S Merrill Ave,Chicago,IL,60617,100000,2,1.0,Jeffery Manor,956,,1945,2,105,,Active,,,http://www.redfin.com/IL/Chicago/9712-S-Merrill-Ave-60617/home/13086198,MRED,11239695,N,Y,41.7184367,-87.5712127
MLS Listing,,Condo/Co-op,8232 S Michigan Ave Unit 2S,Chicago,IL,60619,121000,2,1.0,CHI - Chatham,1500,,1929,2,81,350,Active,,,http://www.redfin.com/IL/Chicago/8232-S-Michigan-Ave-60619/unit-2S/home/13227272,MRED,11239656,N,Y,41.744524,-87.62169
MLS Listing,,Single Family Residential,7048 S Saint Lawrence Ave,Chicago,IL,60637,299999,5,3.0,CHI - Greater Grand Crossing,2088,,1890,2,144,,Active,,,http://www.redfin.com/IL/Chicago/7048-S-St-Lawrence-Ave-60637/home/13928723,MRED,11239638,N,Y,41.7662237,-87.6107889
MLS Listing,,Single Family Residential,6334 S Talman Ave,Chicago,IL,60629,149900,2,1.0,Marquette Park,,3088,1922,2,,,Active,,,http://www.redfin.com/IL/Chicago/6334-S-Talman-Ave-60629/home/13988273,MRED,11239630,N,Y,41.7780647,-87.6899977
MLS Listing,,Single Family Residential,7145 S Maplewood Ave,Chicago,IL,60629,149900,5,2.0,CHI - Chicago Lawn,1700,3781,1926,2,88,,Active,,,http://www.redfin.com/IL/Chicago/7145-S-Maplewood-Ave-60629/home/13985258,MRED,11239622,N,Y,41.7632932,-87.6866283
MLS Listing,,Single Family Residential,7632 S Rhodes Ave,Chicago,IL,60619,89900,4,2.0,CHI - Greater Grand Crossing,1600,3101,1909,2,56,,Active,,,http://www.redfin.com/IL/Chicago/7632-S-Rhodes-Ave-60619/home/13917337,MRED,11239607,N,Y,41.7556049,-87.6116279
MLS Listing,,Multi-Family (2-4 Unit),8533 S Burnham Ave,Chicago,IL,60617,239900,6,3.0,CHI - South Chicago,,,1908,2,,,Active,,,http://www.redfin.com/IL/Chicago/8533-S-Burnham-Ave-60617/home/13212832,MRED,11239554,N,Y,41.7399347,-87.5560595
MLS Listing,,Single Family Residential,7141 S Troy St,Chicago,IL,60629,210000,4,1.0,CHI - Chicago Lawn,1062,,1954,2,198,,Active,,,http://www.redfin.com/IL/Chicago/7141-S-Troy-St-60629/home/13986708,MRED,11239536,N,Y,41.7632073,-87.7012691
MLS Listing,,Single Family Residential,6039 S Kenneth Ave,Chicago,IL,60629,180000,3,1.0,CHI - West Lawn,1258,,1920,2,143,,Active,,,http://www.redfin.com/IL/Chicago/6039-S-Kenneth-Ave-60629/home/14006358,MRED,11239517,N,Y,41.7828104,-87.7333928
MLS Listing,,Multi-Family (2-4 Unit),6735 S Perry Ave,Chicago,IL,60621,184900,4,2.0,CHI - Greater Grand Crossing,,7840,1893,2,,,Active,,,http://www.redfin.com/IL/Chicago/6735-S-Perry-Ave-60621/home/13930700,MRED,11239501,N,Y,41.7717077,-87.6280279
MLS Listing,,Single Family Residential,8730 S Parnell Ave,Chicago,IL,60620,230000,3,3.0,CHI - Auburn Gresham,1400,4155,1928,2,164,,Active,,,http://www.redfin.com/IL/Chicago/8730-S-Parnell-Ave-60620/home/13108215,MRED,11239425,N,Y,41.7350305,-87.6377822
MLS Listing,,Single Family Residential,6216 S Kostner Ave,Chicago,IL,60638,269000,6,3.0,CHI - West Lawn,1159,5227,1949,2,232,,Active,,,http://www.redfin.com/IL/Chicago/6216-S-Kostner-Ave-60629/home/14005091,MRED,11239417,N,Y,41.7798384,-87.7328639
MLS Listing,,Single Family Residential,9742 S Prospect Ave,Chicago,IL,60643,354900,4,3.0,CHI - Beverly,2070,8960,,2,171,,Active,October-9-2021 11:00 AM,October-9-2021 12:30 PM,http://www.redfin.com/IL/Chicago/9742-S-Prospect-Ave-60643/home/123509182,MRED,11239371,N,Y,41.7167594,-87.6646054
MLS Listing,,Multi-Family (2-4 Unit),5030 S Prairie Ave,Chicago,IL,60615,924000,9,6.0,Bronzeville,,,2021,2,,,Active,October-10-2021 01:00 PM,October-10-2021 02:30 PM,http://www.redfin.com/IL/Chicago/5030-S-Prairie-Ave-60615/unit-1ST/home/147832816,MRED,11239341,N,Y,41.802981,-87.6198632
MLS Listing,,Single Family Residential,7932 S Kildare Ave,Chicago,IL,60652,349900,5,2.0,CHI - Ashburn,2000,4769,,2,175,,Active,,,http://www.redfin.com/IL/Chicago/7932-S-Kildare-Ave-60652/home/13971875,MRED,11239314,N,Y,41.7483477,-87.7289205
MLS Listing,,Condo/Co-op,5530 S Shore Dr Unit 19B,Chicago,IL,60637,134000,2,1.0,CHI - Hyde Park,1100,,1949,2,122,1006,Active,,,http://www.redfin.com/IL/Chicago/5530-S-South-Shore-Dr-60637/unit-19B/home/13119922,MRED,11239257,N,Y,41.7943051,-87.5807796
MLS Listing,,Vacant Land,6518 S Winchester Ave,Chicago,IL,60636,20000,,,CHI - West Englewood,,3484,,2,,,Active,,,http://www.redfin.com/IL/Chicago/6518-S-Winchester-Ave-60636/home/40468868,MRED,11239194,N,Y,41.7750495,-87.6729284
MLS Listing,,Vacant Land,6116 S Honore St,Chicago,IL,60636,20000,,,CHI - West Englewood,,,,2,,,Active,,,http://www.redfin.com/IL/Chicago/6116-S-Honore-St-60636/home/147881840,MRED,11239193,N,Y,41.7824972,-87.6706753
MLS Listing,,Multi-Family (2-4 Unit),5815 S May St,Chicago,IL,60621,487000,16,6.0,CHI - Englewood,,15245,1972,2,,,Active,,,http://www.redfin.com/IL/Chicago/5815-S-May-St-60621/home/13940651,MRED,11239136,N,Y,41.788145,-87.6532483
MLS Listing,,Single Family Residential,9741 S Ellis Ave,Chicago,IL,60628,215000,3,2.0,Cottage Grove Heights,,4961,1942,2,,,Active,,,http://www.redfin.com/IL/Chicago/9741-S-Ellis-Ave-60628/home/13087153,MRED,11239127,N,Y,41.7173614,-87.5992066
MLS Listing,,Single Family Residential,2637 W 97th St,Evergreen Park,IL,60805,210000,3,1.0,Evergreen Park,1532,6150,1953,2,137,,Active,October-9-2021 01:00 PM,October-9-2021 03:00 PM,http://www.redfin.com/IL/Evergreen-Park/2637-W-97th-St-60805/home/13161586,MRED,11239022,N,Y,41.7170089,-87.6885634
MLS Listing,,Single Family Residential,828 E 87th Pl,Chicago,IL,60619,220000,4,2.0,CHI - Chatham,,3750,1888,2,,,Active,,,http://www.redfin.com/IL/Chicago/828-E-87th-Pl-60619/home/13115101,MRED,11238977,N,Y,41.7359943,-87.603498
MLS Listing,,Single Family Residential,7545 S Winchester Ave,Chicago,IL,60620,144500,3,1.0,CHI - Auburn Gresham,,3750,1926,2,,,Active,,,http://www.redfin.com/IL/Chicago/7545-S-Winchester-Ave-60620/home/13910323,MRED,11238976,N,Y,41.7561659,-87.6718095
MLS Listing,,Multi-Family (2-4 Unit),6916 S Michigan Ave,Chicago,IL,60637,330000,8,2.5,Park Manor,,3920,1905,2,,,Active,October-9-2021 11:00 AM,October-9-2021 01:00 PM,http://www.redfin.com/IL/Chicago/6916-S-Michigan-Ave-60637/unit-1/home/13929924,MRED,11238972,N,Y,41.7686718,-87.6220895
MLS Listing,,Multi-Family (2-4 Unit),7931 S Union Ave,Chicago,IL,60620,305000,7,2.0,CHI - Auburn Gresham,,,1909,2,,,Active,,,http://www.redfin.com/IL/Chicago/7931-S-Union-Ave-60620/unit-2/home/13228684,MRED,11238971,N,Y,41.7497458,-87.6412998
MLS Listing,,Single Family Residential,8505 S Indiana Ave,Chicago,IL,60619,239900,5,2.0,CHI - Chatham,2200,,,3,109,,Active,October-9-2021 11:00 AM,October-9-2021 01:00 PM,http://www.redfin.com/IL/Chicago/8505-S-Indiana-Ave-60619/home/13225651,MRED,11238960,N,Y,41.7398155,-87.6190814
MLS Listing,,Single Family Residential,8151 S Kilpatrick Ave,Chicago,IL,60652,310000,3,2.0,CHI - Ashburn,1783,5039,1955,3,174,,Active,,,http://www.redfin.com/IL/Chicago/8151-S-Kilpatrick-Ave-60652/home/13972157,MRED,11238958,N,Y,41.7442753,-87.7382493
MLS Listing,,Single Family Residential,5123 S Lawler Ave,Chicago,IL,60638,230000,3,2.0,CHI - Garfield Ridge,1052,,1958,3,219,,Active,,,http://www.redfin.com/IL/Chicago/5123-S-Lawler-Ave-60638/home/14024046,MRED,11238955,N,Y,41.7995341,-87.7487794
MLS Listing,,Single Family Residential,1268 W 74th Pl,Chicago,IL,60636,99999,4,1.5,CHI - West Englewood,1640,3123,1893,3,61,,Active,October-9-2021 10:00 AM,October-9-2021 12:00 PM,http://www.redfin.com/IL/Chicago/1268-W-74th-Pl-60636/home/13915263,MRED,11238937,N,Y,41.7588114,-87.6566295
MLS Listing,,Multi-Family (2-4 Unit),1517 E 69th St,Chicago,IL,60637,179000,6,2.0,CHI - South Shore,,3049,1905,3,,,Active,,,http://www.redfin.com/IL/Chicago/1517-E-69th-St-60637/home/13926854,MRED,11238927,N,Y,41.7694613,-87.5871761
MLS Listing,,Single Family Residential,6800 S Kostner Ave,Chicago,IL,60629,213000,3,1.5,CHI - West Lawn,1147,3750,1944,3,186,,Active,,,http://www.redfin.com/IL/Chicago/6800-S-Kostner-Ave-60629/home/13992766,MRED,11238898,N,Y,41.7693014,-87.7325604
MLS Listing,,Single Family Residential,644 E 93rd St E,Chicago,IL,60619,75900,3,2.0,CHI - Chatham,1035,3123,1905,3,73,,Active,,,http://www.redfin.com/IL/Chicago/644-E-93rd-St-60619/home/13108643,MRED,11238868,N,Y,41.7258369,-87.6076451
MLS Listing,,Single Family Residential,8627 S Euclid Ave,Chicago,IL,60617,315000,5,3.0,CHI - Avalon Park,2100,3750,1925,3,150,,Active,,,http://www.redfin.com/IL/Chicago/8627-S-Euclid-Ave-60617/home/13217714,MRED,11238856,N,Y,41.7380009,-87.5767469
MLS Listing,,Single Family Residential,1304 E 73rd St,Chicago,IL,60619,59900,3,1.0,CHI - South Shore,1081,4125,1915,3,55,,Active,,,http://www.redfin.com/IL/Chicago/1304-E-73rd-St-60619/home/13921233,MRED,11238854,N,Y,41.7625521,-87.5930418
MLS Listing,,Single Family Residential,,Chicago,IL,60619,300000,4,3.0,CHI - Avalon Park,1792,,1929,3,167,,Active,,,http://www.redfin.com/IL/Chicago/Undisclosed-address-60619/home/13220880,MRED,11238845,N,Y,41.7389657,-87.5894144
MLS Listing,,Single Family Residential,5039 S Leclaire Ave,Chicago,IL,60638,279900,4,1.5,CHI - Garfield Ridge,944,,1956,3,297,,Active,,,http://www.redfin.com/IL/Chicago/5039-S-Leclaire-Ave-60638/home/14024624,MRED,11238846,N,Y,41.8008354,-87.7500567
MLS Listing,,Single Family Residential,9553 S Yale Ave,Chicago,IL,60628,219900,3,1.5,CHI - Roseland,1200,3149,1969,3,183,,Active,,,http://www.redfin.com/IL/Chicago/9553-S-Yale-Ave-60628/home/13093072,MRED,11238832,N,Y,41.7200983,-87.6295799
MLS Listing,,Single Family Residential,8545 S Vernon Ave,Chicago,IL,60619,174900,4,2.0,CHI - Chatham,1387,6921,1925,3,126,,Active,,,http://www.redfin.com/IL/Chicago/8545-S-Vernon-Ave-60619/home/13223102,MRED,11238797,N,Y,41.7388264,-87.6126019
MLS Listing,,Single Family Residential,8342 S Paulina St,Chicago,IL,60620,99900,4,2.5,CHI - Auburn Gresham,1175,,1926,3,85,,Active,,,http://www.redfin.com/IL/Chicago/8342-S-Paulina-St-60620/home/13907012,MRED,11238790,N,Y,41.7417451,-87.6659153
MLS Listing,,Condo/Co-op,4850 S Lake Park Ave Unit 1803B,Chicago,IL,60615,27500,1,1.0,CHI - Kenwood,850,,1972,3,32,800,Active,,,http://www.redfin.com/IL/Chicago/4850-S-Lake-Park-Ave-60615/unit-1803B/home/175056671,MRED,11238757,N,Y,41.8068309,-87.5905143
MLS Listing,,Vacant Land,7540-42 S Ingleside St,Chicago,IL,60619,39000,,,CHI - Greater Grand Crossing,,,,3,,,Active,,,http://www.redfin.com/IL/Chicago/7540-S-Ingleside-Ave-60619/home/21780078,MRED,11238723,N,Y,41.757398,-87.6020379
MLS Listing,,Single Family Residential,7817 S Spaulding Ave,Chicago,IL,60652,280000,4,3.0,CHI - Ashburn,1200,3750,,3,233,,Active,,,http://www.redfin.com/IL/Chicago/7817-S-Spaulding-Ave-60652/home/13981120,MRED,11238647,N,Y,41.7510337,-87.7046181
MLS Listing,,Single Family Residential,8252 S Laflin St,Chicago,IL,60620,278500,5,2.0,CHI - Auburn Gresham,1600,4007,1925,3,174,,Active,,,http://www.redfin.com/IL/Chicago/8252-S-Laflin-St-60620/home/13230682,MRED,11238601,N,Y,41.7433576,-87.6610992
MLS Listing,,Multi-Family (2-4 Unit),7725 S Marshfield Ave,Chicago,IL,60620,220000,6,2.0,CHI - Auburn Gresham,,,1916,3,,,Active,,,http://www.redfin.com/IL/Chicago/7725-S-Marshfield-Ave-60620/unit-2/home/13910203,MRED,11238531,N,Y,41.7531788,-87.6643742
MLS Listing,,Condo/Co-op,1321 E Marquette Rd #1,Chicago,IL,60637,229900,3,2.0,CHI - Woodlawn,,,1950,3,,415,Active,October-9-2021 11:00 AM,October-9-2021 01:00 PM,http://www.redfin.com/IL/Chicago/1321-E-Marquette-Rd-60637/unit-1/home/39518267,MRED,11238094,N,Y,41.774896,-87.5936197
MLS Listing,,Single Family Residential,1311 W 97th Pl,Chicago,IL,60643,349900,5,3.0,CHI - Washington Heights,1800,,1920,3,194,,Active,,,http://www.redfin.com/IL/Chicago/1311-W-97th-Pl-60643/home/13097311,MRED,11238472,N,Y,41.7166472,-87.6558291
MLS Listing,,Single Family Residential,8121 S Winchester Ave,Chicago,IL,60620,320000,5,3.0,Gresham,3155,4129,1930,3,101,,Active,,,http://www.redfin.com/IL/Chicago/8121-S-Winchester-Ave-60620/home/13908396,MRED,11212569,N,Y,41.745901,-87.6715399
MLS Listing,,Townhouse,46 E 91st St,Chicago,IL,60619,50000,3,1.0,CHI - Chatham,1300,,1947,3,38,,Active,,,http://www.redfin.com/IL/Chicago/46-E-91st-St-60619/home/13113367,MRED,11238401,N,Y,41.729453,-87.6218881
MLS Listing,,Single Family Residential,3305 W 79th St,Chicago,IL,60652,265000,4,2.0,CHI - Ashburn,1040,2700,1962,3,255,,Active,,,http://www.redfin.com/IL/Chicago/3305-W-79th-St-60652/home/13966906,MRED,11238370,N,Y,41.7495281,-87.7051186
MLS Listing,,Single Family Residential,3769 W 78th St,Chicago,IL,60652,289000,4,2.0,CHI - Ashburn,1494,4038,1949,3,193,,Active,,,http://www.redfin.com/IL/Chicago/3769-W-78th-St-60652/home/13982149,MRED,11238361,N,Y,41.7512395,-87.7169345
MLS Listing,,Single Family Residential,7530 S Oglesby Ave,Chicago,IL,60649,249900,6,2.0,CHI - South Shore,,4094,,3,,,Active,October-9-2021 03:00 PM,October-9-2021 04:00 PM,http://www.redfin.com/IL/Chicago/7530-S-Oglesby-Ave-60649/home/13922677,MRED,11238349,N,Y,41.7580996,-87.5678755
MLS Listing,,Multi-Family (2-4 Unit),5430 S Laflin St,Chicago,IL,60609,69900,9,4.0,CHI - New City,,,1894,3,,,Active,,,http://www.redfin.com/IL/Chicago/5430-S-Laflin-St-60609/home/13953534,MRED,11238320,N,Y,41.7949767,-87.6624863
MLS Listing,,Single Family Residential,10144 S Artesian Ave,Chicago,IL,60655,349000,4,3.0,CHI - Beverly,1776,5000,1951,3,197,,Active,,,http://www.redfin.com/IL/Chicago/10144-S-Artesian-Ave-60655/home/13158558,MRED,11238143,N,Y,41.7086585,-87.6832875
MLS Listing,,Single Family Residential,8057 S Woodlawn Ave,Chicago,IL,60619,299000,3,3.0,CHI - Avalon Park,2461,6669,1885,3,121,,Active,,,http://www.redfin.com/IL/Chicago/8057-S-Woodlawn-Ave-60619/home/13222926,MRED,11238084,N,Y,41.7479075,-87.5951256
MLS Listing,,Vacant Land,4901 W 47th St,Chicago,IL,60638,,,,CHI - Garfield Ridge,,26136,,3,,,Active,,,http://www.redfin.com/IL/Chicago/4901-W-47th-St-60638/home/176643206,MRED,11238081,N,Y,41.8073232,-87.7460024
MLS Listing,,Single Family Residential,4729 S Kostner Ave,Chicago,IL,60632,295900,5,2.0,CHI - Archer Heights,1368,3781,1951,3,216,,Active,,,http://www.redfin.com/IL/Chicago/4729-S-Kostner-Ave-60632/home/14022056,MRED,11238050,N,Y,41.8068703,-87.7330947
MLS Listing,,Single Family Residential,3909 W 57th St,Chicago,IL,60629,260000,5,3.0,CHI - West Elsdon,1450,,1926,3,179,,Active,,,http://www.redfin.com/IL/Chicago/3909-W-57th-St-60629/home/14011374,MRED,11238037,N,Y,41.7893928,-87.7210521
MLS Listing,,Single Family Residential,6600 S Kostner Ave,Chicago,IL,60629,269900,4,2.0,CHI - West Lawn,928,3571,1953,3,291,,Active,,,http://www.redfin.com/IL/Chicago/6600-S-Kostner-Ave-60629/home/13994571,MRED,11223568,N,Y,41.7729583,-87.7326331
MLS Listing,,Single Family Residential,74 E 102nd St,Chicago,IL,60628,92000,4,1.0,CHI - Roseland,1800,6865,,3,51,,Active,,,http://www.redfin.com/IL/Chicago/74-E-102nd-St-60628/home/13088139,MRED,11237965,N,Y,41.7092507,-87.6207012
MLS Listing,,Single Family Residential,7042 S Rockwell St,Chicago,IL,60629,235000,7,3.0,CHI - Chicago Lawn,1700,3388,1925,3,138,,Active,,,http://www.redfin.com/IL/Chicago/7042-S-Rockwell-St-60629/home/13986453,MRED,11237954,N,Y,41.7651171,-87.6884575
MLS Listing,,Townhouse,1505 E 76th St,Chicago,IL,60619,115000,3,1.5,CHI - South Shore,1200,,1969,3,96,,Active,,,http://www.redfin.com/IL/Chicago/1505-E-76th-St-60619/home/13920109,MRED,11237932,N,Y,41.7566603,-87.5879809
MLS Listing,,Townhouse,1134 E 81st St Unit F,Chicago,IL,60619,95000,2,1.5,CHI - Avalon Park,1200,,1972,3,79,,Active,,,http://www.redfin.com/IL/Chicago/1134-E-81st-St-60619/unit-F/home/13223081,MRED,11237931,N,Y,41.7490817,-87.5964568
MLS Listing,,Townhouse,1132 E 81st St Unit H,Chicago,IL,60619,92500,2,1.5,CHI - Avalon Park,1200,,1972,3,77,,Active,,,http://www.redfin.com/IL/Chicago/1132-E-81st-St-60619/unit-H/home/13223302,MRED,11237930,N,Y,41.748757,-87.5964149
MLS Listing,,Multi-Family (2-4 Unit),7649 S May St,Chicago,IL,60620,219000,6,2.0,CHI - Auburn Gresham,,,1915,4,,,Active,,,http://www.redfin.com/IL/Chicago/7649-S-May-St-60620/home/13913992,MRED,11237888,N,Y,41.7545286,-87.6523905
MLS Listing,,Single Family Residential,711 W 88th St,Chicago,IL,60620,160000,5,1.0,CHI - Auburn Gresham,1500,2265,1890,4,107,,Active,,,http://www.redfin.com/IL/Chicago/711-W-88th-St-60620/home/13108297,MRED,11237832,N,Y,41.7342054,-87.6416274
MLS Listing,,Single Family Residential,4332 W 82nd Pl,Chicago,IL,60652,319999,5,2.5,Crestline,2400,5854,1956,4,133,,Active,October-10-2021 12:00 PM,October-10-2021 03:00 PM,http://www.redfin.com/IL/Chicago/4332-W-82nd-Pl-60652/home/13968917,MRED,11237758,N,Y,41.7429649,-87.7309019
MLS Listing,,Multi-Family (2-4 Unit),8527 S Buffalo Ave,Chicago,IL,60617,109900,8,4.0,CHI - South Chicago,,3049,1890,4,,,Active,,,http://www.redfin.com/IL/Chicago/8527-S-Buffalo-Ave-60617/home/13211793,MRED,11237746,N,Y,41.740298,-87.5438928
MLS Listing,,Single Family Residential,7808 S Vernon Ave,Chicago,IL,60619,200000,4,1.0,CHI - Greater Grand Crossing,1100,,1918,4,182,,Active,,,http://www.redfin.com/IL/Chicago/7808-S-Vernon-Ave-60619/home/13918047,MRED,11237736,N,Y,41.7526124,-87.6139518
MLS Listing,,Single Family Residential,6804 S Maplewood Ave,Chicago,IL,60629,315000,5,3.0,CHI - Chicago Lawn,2100,3149,1963,4,150,,Active,,,http://www.redfin.com/IL/Chicago/6804-S-Maplewood-Ave-60629/home/13987118,MRED,11237709,N,Y,41.7698051,-87.6873311
MLS Listing,,Single Family Residential,7401 S Langley Ave,Chicago,IL,60619,150000,4,1.5,CHI - Greater Grand Crossing,1353,3136,1890,4,111,,Active,,,http://www.redfin.com/IL/Chicago/7401-S-Langley-Ave-60619/home/12582830,MRED,11237678,N,Y,41.7602526,-87.6076258
MLS Listing,,Multi-Family (2-4 Unit),8114 S Sangamon St S,Chicago,IL,60620,177900,6,3.0,CHI - Auburn Gresham,,4356,1921,4,,,Active,,,http://www.redfin.com/IL/Chicago/8114-S-Sangamon-St-60620/home/13906634,MRED,11184370,N,Y,41.7464319,-87.6479198
MLS Listing,,Single Family Residential,5041 S Kilpatrick Ave,Chicago,IL,60632,325000,5,3.0,CHI - Garfield Ridge,1955,3781,1956,4,166,,Active,,,http://www.redfin.com/IL/Chicago/5041-S-Kilpatrick-Ave-60632/home/14022755,MRED,11233011,N,Y,41.800988,-87.7402608
MLS Listing,,Single Family Residential,6514 S Keating Ave,Chicago,IL,60629,345000,5,3.0,CHI - Clearing,2070,3750,1931,4,167,,Active,,,http://www.redfin.com/IL/Chicago/6514-S-Keating-Ave-60629/home/13995023,MRED,11237544,N,Y,41.7743706,-87.7412495
MLS Listing,,Single Family Residential,4750 S Maplewood Ave,Chicago,IL,60632,594900,4,3.5,CHI - Brighton Park,2700,,2021,4,220,,Active,,,http://www.redfin.com/IL/Chicago/4750-S-Maplewood-Ave-60632/home/147722953,MRED,11237513,N,Y,41.806772,-87.688404
MLS Listing,,Condo/Co-op,7321 S South Shore Dr Unit 9A,Chicago,IL,60649,249999,4,3.0,CHI - South Shore,2200,,1928,4,114,1071,Active,,,http://www.redfin.com/IL/Chicago/7321-S-South-Shore-Dr-60649/unit-9A/home/40422090,MRED,11227577,N,Y,41.7636521,-87.5594386
MLS Listing,,Multi-Family (2-4 Unit),7342 S Sangamon St,Chicago,IL,60621,165000,6,2.0,CHI - Englewood,,3049,1895,4,,,Active,,,http://www.redfin.com/IL/Chicago/7342-S-Sangamon-St-60621/home/13913787,MRED,11237503,N,Y,41.7601945,-87.6482282
MLS Listing,,Condo/Co-op,5013 S King Dr Unit 4E,Chicago,IL,60615,269900,3,2.0,CHI - Grand Boulevard,1976,,1916,4,137,227,Active,,,http://www.redfin.com/IL/Chicago/5013-S-King-Dr-60615/unit-4E/home/18941146,MRED,11237436,N,Y,41.803565,-87.6158559
MLS Listing,,Single Family Residential,8412 S Peoria St,Chicago,IL,60620,79900,3,2.0,CHI - Auburn Gresham,1006,3968,1905,4,79,,Active,,,http://www.redfin.com/IL/Chicago/8412-S-Peoria-St-60620/home/13228750,MRED,11237404,N,Y,41.7410392,-87.6464938
MLS Listing,,Single Family Residential,8529 S Aberdeen St,Chicago,IL,60620,85000,2,1.0,CHI - Auburn Gresham,903,3123,1918,4,94,,Active,,,http://www.redfin.com/IL/Chicago/8529-S-Aberdeen-St-60620/home/13227931,MRED,11237348,N,Y,41.7387257,-87.6507429
MLS Listing,,Single Family Residential,9214 S Eggleston Ave,Chicago,IL,60620,250000,3,2.0,CHI - Washington Heights,1589,3123,1968,4,157,,Active,October-9-2021 11:00 AM,October-9-2021 01:00 PM,http://www.redfin.com/IL/Chicago/9214-S-Eggleston-Ave-60620/home/13106750,MRED,11237244,N,Y,41.7265796,-87.6351607
MLS Listing,,Single Family Residential,6930 S Indiana Ave,Chicago,IL,60637,150000,4,2.0,CHI - Greater Grand Crossing,,4800,1918,4,,,Active,,,http://www.redfin.com/IL/Chicago/6930-S-Indiana-Ave-60637/home/13930136,MRED,11237217,N,Y,41.7682887,-87.6204698
MLS Listing,,Single Family Residential,1207 W 97th Pl,Chicago,IL,60643,414900,6,4.0,CHI - Washington Heights,3910,6229,1921,4,106,,Active,October-9-2021 11:00 AM,October-9-2021 01:00 PM,http://www.redfin.com/IL/Chicago/1207-W-97th-Pl-60643/home/13096610,MRED,11237173,N,Y,41.7167797,-87.6532921
MLS Listing,,Multi-Family (2-4 Unit),8303 S Brandon Ave,Chicago,IL,60617,55000,4,4.0,CHI - South Chicago,,2613,1888,4,,,Active,,,http://www.redfin.com/IL/Chicago/8303-S-Brandon-Ave-60617/home/13212542,MRED,11237088,N,Y,41.744539,-87.546394
MLS Listing,,Multi-Family (2-4 Unit),5132 S Wolcott Ave,Chicago,IL,60609,68000,4,2.0,CHI - New City,,8712,1902,4,,,Active,,,http://www.redfin.com/IL/Chicago/5132-S-Wolcott-Ave-60609/unit-1/home/13955477,MRED,11237032,N,Y,41.8002621,-87.6723103
MLS Listing,,Condo/Co-op,5460 S Woodlawn Ave Unit 1E,Chicago,IL,60637,245000,3,1.0,CHI - Hyde Park,,,1906,4,,701,Active,,,http://www.redfin.com/IL/Chicago/5460-S-Woodlawn-Ave-60615/unit-1E/home/21625681,MRED,11237015,N,Y,41.7962167,-87.5969365
MLS Listing,,Condo/Co-op,5205 S Drexel Ave Unit N1B,Chicago,IL,60615,235000,3,2.0,CHI - Hyde Park,1489,,,4,158,486,Active,,,http://www.redfin.com/IL/Chicago/5205-S-Drexel-Ave-60615/unit-N1B/home/12591160,MRED,11236994,N,Y,41.80054,-87.603583
MLS Listing,,Single Family Residential,9533 S Constance Ave,Chicago,IL,60617,185000,3,1.0,CHI - South Deering,1134,5140,1956,4,163,,Active,,,http://www.redfin.com/IL/Chicago/9533-S-Constance-Ave-60617/home/13085333,MRED,11236995,N,Y,41.7213637,-87.5786848
MLS Listing,,Vacant Land,6521 S Evans Ave,Chicago,IL,60637,36000,,,CHI - Woodlawn,,2613,,4,,,Active,,,http://www.redfin.com/IL/Chicago/6521-S-Evans-Ave-60637/home/147834684,MRED,11236954,N,Y,41.7761232,-87.6067451
MLS Listing,,Condo/Co-op,5201 S Cornell Ave Unit 27F,Chicago,IL,60615,168900,2,2.0,CHI - Hyde Park,1000,,,4,169,1187,Active,,,http://www.redfin.com/IL/Chicago/5201-S-Cornell-Ave-60615/unit-27F/home/13947313,MRED,11236957,N,Y,41.8009745,-87.5854956
MLS Listing,,Multi-Family (2-4 Unit),838 W 51st Pl W,Chicago,IL,60609,120000,6,2.0,CHI - New City,,,1880,4,,,Active,,,http://www.redfin.com/IL/Chicago/838-W-51st-Pl-60609/home/13953517,MRED,11236934,N,Y,41.8008335,-87.6469177
MLS Listing,,Single Family Residential,10126 S Clifton Park Ave,Evergreen Park,IL,60805,229900,3,2.0,Evergreen Park,1500,6490,1950,4,153,,Active,,,http://www.redfin.com/IL/Evergreen-Park/10126-S-Clifton-Park-Ave-60805/home/13163064,MRED,11197493,N,Y,41.7088484,-87.7103149
MLS Listing,,Condo/Co-op,9722 S Karlov Ave #305,Oak Lawn,IL,60453,142000,2,1.0,Oak Lawn,750,,1970,4,189,211,Active,,,http://www.redfin.com/IL/Oak-Lawn/9722-Karlov-Ave-60453/unit-305/home/13166266,MRED,11236907,N,Y,41.7157115,-87.7238924
MLS Listing,,Single Family Residential,7034 S Washtenaw Ave,Chicago,IL,60629,269000,7,3.0,CHI - Chicago Lawn,2200,4726,,4,122,,Active,,,http://www.redfin.com/IL/Chicago/7034-S-Washtenaw-Ave-60629/home/13986612,MRED,11236889,N,Y,41.7653703,-87.6909123
MLS Listing,,Multi-Family (2-4 Unit),742 E 88th St,Chicago,IL,60619,269900,6,3.0,CHI - Chatham,,3049,1891,4,,,Active,,,http://www.redfin.com/IL/Chicago/742-E-88th-St-60619/home/13112234,MRED,11236852,N,Y,41.7350261,-87.6055427
MLS Listing,,Multi-Family (2-4 Unit),8001 S Coles Ave,Chicago,IL,60617,179900,4,2.0,Rainbow Beach,,3049,1915,5,,,Active,,,http://www.redfin.com/IL/Chicago/8001-S-Coles-Ave-60617/home/13214128,MRED,11236793,N,Y,41.7500181,-87.5489909
MLS Listing,,Single Family Residential,8627 S Baltimore Ave,Chicago,IL,60617,89000,2,1.0,CHI - South Chicago,,3036,1880,5,,,Active,,,http://www.redfin.com/IL/Chicago/8627-S-Baltimore-Ave-60617/home/13211979,MRED,11236788,N,Y,41.7385288,-87.548706
MLS Listing,,Single Family Residential,10141 S Union Ave,Chicago,IL,60628,339900,4,3.0,CHI - Washington Heights,1400,3750,1921,5,243,,Active,,,http://www.redfin.com/IL/Chicago/10141-S-Union-Ave-60628/home/40033978,MRED,11236740,N,Y,41.7093835,-87.6402256
MLS Listing,,Multi-Family (2-4 Unit),6357 S Maryland Ave,Chicago,IL,60637,199000,6,4.0,CHI - Woodlawn,,,1893,5,,,Active,,,http://www.redfin.com/IL/Chicago/6357-S-Maryland-Ave-60637/home/13927682,MRED,11236680,N,Y,41.77875,-87.6042499
MLS Listing,,Single Family Residential,4905 S Lockwood Ave,Chicago,IL,60638,309000,3,2.0,CHI - Garfield Ridge,1320,,1997,5,234,,Active,October-10-2021 12:00 PM,October-10-2021 03:00 PM,http://www.redfin.com/IL/Chicago/4905-S-Lockwood-Ave-60638/home/14026134,MRED,11236624,N,Y,41.8035266,-87.7549582
MLS Listing,,Condo/Co-op,4950 S Chicago Beach Dr Unit 12A,Chicago,IL,60615,995000,4,4.0,Powhatan,4000,,1929,5,249,6223,Active,,,http://www.redfin.com/IL/Chicago/4950-S-Chicago-Beach-Dr-60615/unit-12A/home/104313768,MRED,11236604,N,Y,41.8045309,-87.5844938
MLS Listing,,Single Family Residential,4918 S Hermitage Ave,Chicago,IL,60609,299000,6,3.5,Back of the Yards,2500,3001,1892,5,120,,Active,,,http://www.redfin.com/IL/Chicago/4918-S-Hermitage-Ave-60609/home/13956989,MRED,11236602,N,Y,41.8042773,-87.6687951
MLS Listing,,Single Family Residential,10048 S Rhodes Ave,Chicago,IL,60628,195000,3,1.5,Rosemoor,1369,3750,1948,5,142,,Active,,,http://www.redfin.com/IL/Chicago/10048-S-Rhodes-Ave-60628/home/13087116,MRED,11236571,N,Y,41.7113726,-87.6104804
MLS Listing,,Townhouse,8801 S Beck Pl,Hometown,IL,60456,190000,2,1.0,Hometown,950,,1951,5,200,,Active,,,http://www.redfin.com/IL/Hometown/8801-S-Beck-Pl-60456/home/13182562,MRED,11232230,N,Y,41.732399,-87.728323
MLS Listing,,Multi-Family (2-4 Unit),9046 S Dauphin Ave,Chicago,IL,60619,249000,5,2.0,CHI - Chatham,,,1900,5,,,Active,,,http://www.redfin.com/IL/Chicago/9046-S-Dauphin-Ave-60619/unit-1/home/13114965,MRED,11236533,N,Y,41.7297935,-87.6030061
MLS Listing,,Single Family Residential,6413 S Albany Ave,Chicago,IL,60629,239900,4,1.5,CHI - Chicago Lawn,1300,3249,1952,6,185,,Active,,,http://www.redfin.com/IL/Chicago/6413-S-Albany-Ave-60629/home/13987796,MRED,11236479,N,Y,41.7766709,-87.7004221
MLS Listing,,Multi-Family (2-4 Unit),6018 S Sawyer Ave,Chicago,IL,60629,345000,4,3.0,CHI - Chicago Lawn,,6098,1910,6,,,Active,,,http://www.redfin.com/IL/Chicago/6018-S-Sawyer-Ave-60629/home/14008240,MRED,11236454,N,Y,41.7837879,-87.7047721
MLS Listing,,Single Family Residential,8959 S Euclid Ave,Chicago,IL,60617,259900,4,2.5,CHI - Calumet Heights,1400,3750,1979,6,186,,Active,October-10-2021 12:00 PM,October-10-2021 02:00 PM,http://www.redfin.com/IL/Chicago/8959-S-Euclid-Ave-60617/home/13118153,MRED,11236398,N,Y,41.7316986,-87.5765232
MLS Listing,,Multi-Family (2-4 Unit),,Chicago,IL,60620,225000,4,2.0,CHI - Auburn Gresham,,,1925,6,,,Active,,,http://www.redfin.com/IL/Chicago/Undisclosed-address-60620/home/13227559,MRED,11236402,N,Y,41.7376137,-87.6519666
MLS Listing,,Multi-Family (2-4 Unit),8113 S Drexel Ave,Chicago,IL,60619,459000,9,3.0,CHI - Chatham,,3920,1927,6,,,Active,,,http://www.redfin.com/IL/Chicago/8113-S-Drexel-Ave-60619/unit-12/home/13224205,MRED,11236348,N,Y,41.7472029,-87.6023406
MLS Listing,,Multi-Family (2-4 Unit),6217 S Albany Ave,Chicago,IL,60629,375900,8,3.0,CHI - Chicago Lawn,,,,6,,,Active,,,http://www.redfin.com/IL/Chicago/6217-S-Albany-Ave-60629/home/14013311,MRED,11236280,N,Y,41.780284,-87.7004606
MLS Listing,,Single Family Residential,8943 S Elizabeth St SW,Chicago,IL,60620,150000,4,1.5,CHI - Washington Heights,828,3750,1927,6,181,,Active,October-9-2021 11:00 AM,October-9-2021 02:00 PM,http://www.redfin.com/IL/Chicago/8943-S-Elizabeth-St-60620/home/13104695,MRED,11236173,N,Y,41.730973,-87.6542017
MLS Listing,,Multi-Family (2-4 Unit),6621 S Marquette Rd,Chicago,IL,60637,229900,6,2.0,CHI - Woodlawn,,,1905,6,,,Active,,,http://www.redfin.com/IL/Chicago/6621-S-Marquette-Rd-60637/home/13930096,MRED,11236154,N,Y,41.7741512,-87.6127947
MLS Listing,,Single Family Residential,8921 S Bennett Ave S,Chicago,IL,60617,269000,3,1.5,CHI - Calumet Heights,1248,3750,1953,6,216,,Active,,,http://www.redfin.com/IL/Chicago/8921-S-Bennett-Ave-60617/home/13119672,MRED,11236123,N,Y,41.7326575,-87.5777584
MLS Listing,,Single Family Residential,7758 S Bennett Ave,Chicago,IL,60649,310000,4,2.5,CHI - South Shore,3000,3576,1955,6,103,,Active,,,http://www.redfin.com/IL/Chicago/7758-S-Bennett-Ave-60649/unit-H/home/13924910,MRED,11236090,N,Y,41.7535106,-87.578762
MLS Listing,,Single Family Residential,8337 S Prairie Ave,Chicago,IL,60619,175000,3,2.0,CHI - Chatham,1553,5397,1947,6,113,,Active,,,http://www.redfin.com/IL/Chicago/8337-S-Prairie-Ave-60619/home/13224651,MRED,11236058,N,Y,41.742621,-87.6175388
MLS Listing,,Condo/Co-op,1725 E 67th St Unit 3F,Chicago,IL,60649,160000,2,2.0,CHI - South Shore,1200,,1918,6,133,282,Active,,,http://www.redfin.com/IL/Chicago/1725-E-67th-St-60649/unit-3F/home/12658000,MRED,11236012,N,Y,41.7731,-87.582884
MLS Listing,,Single Family Residential,7621 S Cornell Ave,Chicago,IL,60649,289000,4,3.0,Southshore,2030,3632,1924,6,142,,Active,,,http://www.redfin.com/IL/Chicago/7621-S-Cornell-Ave-60649/home/13923556,MRED,11236001,N,Y,41.7563076,-87.5842815
MLS Listing,,Multi-Family (2-4 Unit),6426 S Peoria St S,Chicago,IL,60621,95000,9,3.0,CHI - Englewood,,3920,1898,7,,,Active,,,http://www.redfin.com/IL/Chicago/6426-S-Peoria-St-60621/home/13934094,MRED,11235988,N,Y,41.7770019,-87.6475344
MLS Listing,,Condo/Co-op,817 E 53rd St Unit 2N,Chicago,IL,60615,170000,2,1.0,CHI - Hyde Park,,,,7,,281,Active,,,http://www.redfin.com/IL/Chicago/817-E-53rd-St-60615/unit-2N/home/21797977,MRED,11235984,N,Y,41.798424,-87.605459
MLS Listing,,Single Family Residential,5833 S Kolmar Ave,Chicago,IL,60629,239900,5,3.0,CHI - West Elsdon,2400,,1931,7,100,,Active,,,http://www.redfin.com/IL/Chicago/5833-S-Kolmar-Ave-60629/home/14008116,MRED,11175939,N,Y,41.7866608,-87.7361337
MLS Listing,,Multi-Family (2-4 Unit),2548 W 71st St,Chicago,IL,60629,369000,10,4.0,CHI - Chicago Lawn,,3049,1931,7,,,Active,,,http://www.redfin.com/IL/Chicago/2548-W-71st-St-60629/home/13986608,MRED,11235967,N,Y,41.7648376,-87.6876007
MLS Listing,,Multi-Family (2-4 Unit),5227 S Paulina St,Chicago,IL,60609,160000,10,3.0,CHI - New City,,3049,1902,7,,,Active,,,http://www.redfin.com/IL/Chicago/5227-S-Paulina-St-60609/home/13955604,MRED,11235959,N,Y,41.7986665,-87.6668496
MLS Listing,,Single Family Residential,8126 S Houston Ave,Chicago,IL,60617,75000,2,1.0,CHI - South Chicago,1434,3402,1946,7,52,,Active,,,http://www.redfin.com/IL/Chicago/8126-S-Houston-Ave-60617/home/13213755,MRED,11235913,N,Y,41.7475143,-87.5506139
MLS Listing,,Single Family Residential,4811 S Lorel Ave,Stickney,IL,60638,235900,3,1.0,Stickney,960,,1958,7,246,,Active,,,http://www.redfin.com/IL/Chicago/4811-S-Lorel-Ave-60638/home/14024661,MRED,11235915,N,Y,41.805227,-87.7562476
MLS Listing,,Single Family Residential,8147 S Kolmar Ave,Chicago,IL,60652,235000,3,1.0,CHI - Ashburn,1400,4756,1954,7,168,,Active,October-10-2021 01:00 PM,October-10-2021 03:00 PM,http://www.redfin.com/IL/Chicago/8147-S-Kolmar-Ave-60652/home/13971087,MRED,11235883,N,Y,41.743933,-87.7346719
MLS Listing,,Single Family Residential,5005 S Kilpatrick Ave,Chicago,IL,60632,300000,6,3.0,CHI - Garfield Ridge,1269,3789,1958,7,236,,Active,,,http://www.redfin.com/IL/Chicago/5005-S-Kilpatrick-Ave-60632/home/14022064,MRED,11235884,N,Y,41.8019644,-87.740288
MLS Listing,,Multi-Family (2-4 Unit),51 E 100th St,Chicago,IL,60628,149900,7,2.0,CHI - Roseland,,,,7,,,Active,,,http://www.redfin.com/IL/Chicago/51-E-100th-St-60628/home/13090229,MRED,11235828,N,Y,41.7124206,-87.6216653
MLS Listing,,Single Family Residential,6514 S Keeler Ave,Chicago,IL,60629,279900,3,1.5,CHI - West Lawn,1424,5000,1943,7,197,,Active,,,http://www.redfin.com/IL/Chicago/6514-S-Keeler-Ave-60629/home/13993168,MRED,11235817,N,Y,41.7744556,-87.7277856
MLS Listing,,Multi-Family (2-4 Unit),6940 S Green St,Chicago,IL,60621,65000,7,3.0,CHI - Englewood,,,1908,7,,,Active,,,http://www.redfin.com/IL/Chicago/6940-S-Green-St-60621/unit-2/home/13930911,MRED,11235805,N,Y,41.7675308,-87.6459927
MLS Listing,,Multi-Family (2-4 Unit),10141 S State St,Chicago,IL,60628,139900,6,2.0,CHI - Roseland,,,,7,,,Active,,,http://www.redfin.com/IL/Chicago/10141-S-State-St-60628/home/13090110,MRED,11235801,N,Y,41.7094956,-87.6234823
MLS Listing,,Multi-Family (2-4 Unit),7445 S Dante Ave,Chicago,IL,60619,330000,5,3.0,CHI - South Shore,,,1909,7,,,Active,,,http://www.redfin.com/IL/Chicago/7445-S-Dante-Ave-60619/home/13922131,MRED,11235794,N,Y,41.7592102,-87.5892986
MLS Listing,,Single Family Residential,2103 W Marquette Rd,Chicago,IL,60636,175000,3,2.0,CHI - West Englewood,1092,3092,1928,7,160,,Active,,,http://www.redfin.com/IL/Chicago/2103-W-Marquette-Rd-60636/home/13935316,MRED,11235729,N,Y,41.771839,-87.6764319
MLS Listing,,Single Family Residential,8407 S Wood St,Chicago,IL,60620,225000,3,2.0,Gresham,2100,3998,1947,7,107,,Active,,,http://www.redfin.com/IL/Chicago/8407-S-Wood-St-60620/home/13907732,MRED,11227582,N,Y,41.7409274,-87.6677646
MLS Listing,,Multi-Family (2-4 Unit),10055 S State St,Chicago,IL,60628,159900,7,3.0,CHI - Roseland,,,,7,,,Active,,,http://www.redfin.com/IL/Chicago/10055-S-State-St-60628/home/13089439,MRED,11235709,N,Y,41.7110159,-87.6233235
MLS Listing,,Single Family Residential,8637 S Kedvale Ave,Chicago,IL,60652,335000,3,2.0,Scottsdale,1296,,1959,7,258,,Active,,,http://www.redfin.com/IL/Chicago/8637-S-Kedvale-Ave-60652/home/13968069,MRED,11235689,N,Y,41.7354977,-87.7247845
MLS Listing,,Single Family Residential,3531 W 61st Pl,Chicago,IL,60629,260000,5,2.0,CHI - Chicago Lawn,,3123,1956,7,,,Active,,,http://www.redfin.com/IL/Chicago/3531-W-61st-Pl-60629/home/14006718,MRED,11235645,N,Y,41.7813637,-87.7117774
MLS Listing,,Single Family Residential,5829 S Albany Ave,Chicago,IL,60629,274900,6,3.0,CHI - Gage Park,1200,3611,1927,7,229,,Active,,,http://www.redfin.com/IL/Chicago/5829-S-Albany-Ave-60629/home/14015173,MRED,11235635,N,Y,41.7872012,-87.7006531
MLS Listing,,Single Family Residential,3857 W 84th Pl,Chicago,IL,60652,239900,4,2.5,CHI - Ashburn,1900,3031,1958,7,126,,Active,,,http://www.redfin.com/IL/Chicago/3857-W-84th-Pl-60652/home/13966559,MRED,11235559,N,Y,41.7392701,-87.7189741
MLS Listing,,Condo/Co-op,6530 S Minerva Ave Unit 3S,Chicago,IL,60637,419900,3,2.0,CHI - Woodlawn,,,2021,7,,184,Active,October-9-2021 10:30 AM,October-9-2021 11:30 AM,http://www.redfin.com/IL/Chicago/6530-S-Minerva-Ave-60637/unit-3S/home/174504669,MRED,11235532,N,Y,41.7759151,-87.5969547
MLS Listing,,Single Family Residential,3836 W 77th St,Chicago,IL,60652,202500,3,1.0,CHI - Ashburn,1120,4038,1955,7,181,,Active,,,http://www.redfin.com/IL/Chicago/3836-W-77th-St-60652/home/13981053,MRED,11235528,N,Y,41.7530065,-87.7198207
MLS Listing,,Single Family Residential,8941 S Elizabeth St,Chicago,IL,60620,335000,5,3.0,CHI - Washington Heights,1640,3750,1927,7,204,,Active,,,http://www.redfin.com/IL/Chicago/8941-S-Elizabeth-St-60620/home/13104617,MRED,11235514,N,Y,41.7310515,-87.6542403
MLS Listing,,Single Family Residential,3428 W 64th St,Chicago,IL,60629,204900,3,1.0,CHI - Chicago Lawn,1250,,,7,164,,Active,,,http://www.redfin.com/IL/Chicago/3428-W-64th-St-60629/home/13991309,MRED,11235491,N,Y,41.7772523,-87.709141
MLS Listing,,Single Family Residential,7742 S Hermitage Ave,Chicago,IL,60620,159900,3,1.5,CHI - Auburn Gresham,1296,3750,1926,7,123,,Active,,,http://www.redfin.com/IL/Chicago/7742-S-Hermitage-Ave-60620/home/13909255,MRED,11235472,N,Y,41.7526575,-87.6674178
MLS Listing,,Single Family Residential,8942 S Anthony Ave,Chicago,IL,60617,134900,3,1.0,CHI - Calumet Heights,1159,3750,1960,7,116,,Active,,,http://www.redfin.com/IL/Chicago/8942-S-Anthony-Ave-60617/home/13045042,MRED,11235371,N,Y,41.7325783,-87.5629332
MLS Listing,,Single Family Residential,9334 S Elizabeth St,Chicago,IL,60620,195000,3,1.0,CHI - Washington Heights,1404,,1928,7,139,,Active,,,http://www.redfin.com/IL/Chicago/9334-S-Elizabeth-St-60620/home/13104052,MRED,11235370,N,Y,41.7239431,-87.6545486
MLS Listing,,Single Family Residential,8043 Lamon Ave,Burbank,IL,60459,239900,3,2.0,Burbank / Nottingham Park,1571,,1948,7,153,,Active,,,http://www.redfin.com/IL/Burbank/8043-Lamon-Ave-60459/home/13972085,MRED,11235358,N,Y,41.7464744,-87.743365
MLS Listing,,Single Family Residential,4837 S Kostner Ave,Chicago,IL,60632,314900,4,3.0,CHI - Archer Heights,1874,3781,1954,7,168,,Active,October-10-2021 01:00 PM,October-10-2021 03:00 PM,http://www.redfin.com/IL/Chicago/4837-S-Kostner-Ave-60632/home/14023326,MRED,11235341,N,Y,41.8048112,-87.7330178
MLS Listing,,Vacant Land,4737 S Shields Ave,Chicago,IL,60609,20900,,,CHI - Fuller Park,,3049,,7,,,Active,,,http://www.redfin.com/IL/Chicago/4737-S-Shields-Ave-60609/home/21875289,MRED,11235319,N,Y,41.8080868,-87.6341924
MLS Listing,,Multi-Family (2-4 Unit),8819 S Escanaba Ave,Chicago,IL,60617,69500,7,3.0,CHI - South Chicago,,,1890,7,,,Active,,,http://www.redfin.com/IL/Chicago/8819-S-Escanaba-Ave-60617/unit-2FL/home/13044259,MRED,11235307,N,Y,41.734879,-87.5537219
MLS Listing,,Single Family Residential,8316 S Luella Ave,Chicago,IL,60617,319900,5,3.0,CHI - South Chicago,1500,4499,1921,7,213,,Active,,,http://www.redfin.com/IL/Chicago/8316-S-Luella-Ave-60617/home/13218511,MRED,11235257,N,Y,41.7438448,-87.5700376
MLS Listing,,Single Family Residential,9733 S Wenthworth Ave,Chicago,IL,60628,149900,3,1.0,CHI - Roseland,1000,3001,1961,7,150,,Active,,,http://www.redfin.com/IL/Chicago/9733-S-Wentworth-Ave-60628/home/13092656,MRED,11235249,N,Y,41.7169903,-87.6282978
MLS Listing,,Condo/Co-op,4648 W 63rd St #3,Chicago,IL,60629,274900,2,2.0,CHI - Clearing,1200,,2007,7,229,,Active,,,http://www.redfin.com/IL/Chicago/4648-W-63rd-St-60629/unit-3/home/18923593,MRED,11235080,N,Y,41.7786373,-87.7392858
MLS Listing,,Single Family Residential,7655 S Rhodes Ave,Chicago,IL,60619,245000,4,3.0,CHI - Greater Grand Crossing,1566,3497,1923,7,156,,Active,,,http://www.redfin.com/IL/Chicago/7655-S-Rhodes-Ave-60619/home/13917752,MRED,11225492,N,Y,41.7550402,-87.6110975
MLS Listing,,Single Family Residential,9807 S Ingleside Ave,Chicago,IL,60628,189900,4,1.5,Cottage Grove Heights,2885,,1953,7,66,,Active,,,http://www.redfin.com/IL/Chicago/9807-S-Ingleside-Ave-60628/home/13087214,MRED,11235063,N,Y,41.7163736,-87.600373
MLS Listing,,Single Family Residential,9150 S Hoyne Ave,Chicago,IL,60643,448500,4,2.0,CHI - Beverly,1842,8951,1920,7,243,,Active,,,http://www.redfin.com/IL/Chicago/9150-S-Hoyne-Ave-60643/home/13101061,MRED,11234719,N,Y,41.7268252,-87.6749489
MLS Listing,,Condo/Co-op,6108 S Kimbark Ave Unit 1W,Chicago,IL,60637,175900,2,1.0,CHI - Woodlawn,1300,,1920,7,135,563,Active,,,http://www.redfin.com/IL/Chicago/6108-S-Kimbark-Ave-60637/unit-1W/home/103220396,MRED,11234694,N,Y,41.7838177,-87.5951562
MLS Listing,,Single Family Residential,3436 W 64th Pl,Chicago,IL,60629,270000,5,2.0,CHI - Chicago Lawn,6108,,1917,8,44,,Active,,,http://www.redfin.com/IL/Chicago/3436-W-64th-Pl-60629/home/13990805,MRED,11234678,N,Y,41.7763262,-87.7094489
MLS Listing,,Multi-Family (2-4 Unit),8014 S La Salle St,Chicago,IL,60620,210000,4,2.0,CHI - Chatham,,,1928,8,,,Active,,,http://www.redfin.com/IL/Chicago/8014-S-La-Salle-St-60620/home/13227997,MRED,11234656,N,Y,41.7485881,-87.6284424
MLS Listing,,Single Family Residential,9806 S Bensley Ave,Chicago,IL,60617,185000,3,2.0,CHI - South Deering,1662,5375,1945,8,111,,Active,,,http://www.redfin.com/IL/Chicago/9806-S-Bensley-Ave-60617/home/13042538,MRED,11234573,N,Y,41.7170043,-87.5637055
MLS Listing,,Multi-Family (2-4 Unit),9238 S Dobson Ave,Chicago,IL,60619,125000,5,2.0,CHI - Burnside,,,1920,8,,,Active,,,http://www.redfin.com/IL/Chicago/9238-S-Dobson-Ave-60619/home/13114614,MRED,11234534,N,Y,41.726411,-87.5987911
MLS Listing,,Condo/Co-op,6600 S Kimbark Ave Unit 3S,Chicago,IL,60637,209900,2,2.0,CHI - Woodlawn,1200,,2006,8,175,175,Active,,,http://www.redfin.com/IL/Chicago/6600-S-Kimbark-Ave-60637/unit-3S/home/26824735,MRED,11234451,N,Y,41.774881,-87.594879
MLS Listing,,Vacant Land,5027 S Throop St,Chicago,IL,60609,15000,,,CHI - New City,,,,8,,,Active,,,http://www.redfin.com/IL/Chicago/5027-S-Throop-St-60609/home/147914520,MRED,11234414,N,Y,41.802391,-87.657167
MLS Listing,,Single Family Residential,3245 W 64th Pl,Chicago,IL,60629,249000,6,5.0,CHI - Chicago Lawn,6250,,1890,8,40,,Active,,,http://www.redfin.com/IL/Chicago/3245-W-64th-Pl-60629/home/13989692,MRED,11234387,N,Y,41.7760241,-87.7050031
MLS Listing,,Single Family Residential,8604 S Loomis Blvd,Chicago,IL,60620,294900,5,3.0,CHI - Auburn Gresham,2164,3998,1925,8,136,,Active,,,http://www.redfin.com/IL/Chicago/8604-S-Loomis-Blvd-60620/home/13228986,MRED,11234351,N,Y,41.737436,-87.6585176
MLS Listing,,Condo/Co-op,3847 W 47th St Unit 1E,Chicago,IL,60632,100000,1,1.0,CHI - Archer Heights,900,,1971,8,111,262,Active,,,http://www.redfin.com/IL/Chicago/3847-W-47th-St-60632/unit-1E/home/176578249,MRED,11234308,N,Y,41.8077393,-87.7204091
MLS Listing,,Single Family Residential,8015 S Ridgeland Ave,Chicago,IL,60617,130000,4,1.5,CHI - South Chicago,1012,5431,1914,8,128,,Active,,,http://www.redfin.com/IL/Chicago/8015-S-Ridgeland-Ave-60617/home/13220800,MRED,11234273,N,Y,41.7492515,-87.5813482
MLS Listing,,Single Family Residential,326 E 90th Pl,Chicago,IL,60619,225000,3,2.0,CHI - Chatham,1020,3123,1962,8,221,,Active,,,http://www.redfin.com/IL/Chicago/326-E-90th-Pl-60619/home/13112261,MRED,11230350,N,Y,41.7302757,-87.6164203
MLS Listing,,Multi-Family (2-4 Unit),7605 S Calumet Ave,Chicago,IL,60619,189000,4,3.0,CHI - Greater Grand Crossing,,4791,1924,8,,,Active,,,http://www.redfin.com/IL/Chicago/7605-S-Calumet-Ave-60619/home/13919347,MRED,11234175,N,Y,41.7563137,-87.6163046
MLS Listing,,Multi-Family (2-4 Unit),6200 S Knox Ave,Chicago,IL,60629,379000,5,3.0,CHI - Clearing,,3484,1962,8,,,Active,,,http://www.redfin.com/IL/Chicago/6200-S-Knox-Ave-60629/unit-1/home/14005834,MRED,11234166,N,Y,41.780736,-87.737761
MLS Listing,,Single Family Residential,,Chicago,IL,60620,240000,4,2.0,CHI - Auburn Gresham,4000,4007,1931,8,60,,Active,,,http://www.redfin.com/IL/Chicago/Undisclosed-address-60620/home/13230553,MRED,11234152,N,Y,41.7440434,-87.6623322
MLS Listing,,Single Family Residential,6917 S King Dr,Chicago,IL,60637,330000,5,3.0,CHI - Greater Grand Crossing,2628,3092,1912,8,126,,Active,,,http://www.redfin.com/IL/Chicago/6917-S-King-Dr-60637/home/13928400,MRED,11234147,N,Y,41.7687987,-87.6150704
MLS Listing,,Single Family Residential,6142 S Wallace St,Chicago,IL,60621,40000,4,1.0,CHI - Englewood,1347,,1885,8,30,,Active,,,http://www.redfin.com/IL/Chicago/6142-S-Wallace-Ave-60621/home/13941670,MRED,11234087,N,Y,41.7821742,-87.6402494
MLS Listing,,Multi-Family (2-4 Unit),625 W 48th Pl,Chicago,IL,60609,225000,4,2.0,Canaryville,,,1896,8,,,Active,,,http://www.redfin.com/IL/Chicago/625-W-48th-Pl-60609/home/13952979,MRED,11233981,N,Y,41.8060349,-87.6416467
MLS Listing,,Single Family Residential,6107 S Francisco Ave,Chicago,IL,60629,230000,4,1.0,CHI - Chicago Lawn,1202,,1924,8,191,,Active,October-10-2021 12:00 PM,October-10-2021 03:00 PM,http://www.redfin.com/IL/Chicago/6107-S-Francisco-Ave-60629/home/14013550,MRED,11233971,N,Y,41.7824414,-87.6956867
MLS Listing,,Single Family Residential,7634 S Vernon Ave,Chicago,IL,60619,130000,4,2.0,CHI - Greater Grand Crossing,2500,3702,1916,8,52,,Active,,,http://www.redfin.com/IL/Chicago/7634-S-Vernon-Ave-60619/home/13918353,MRED,11227267,N,Y,41.7556457,-87.6140676
MLS Listing,,Multi-Family (2-4 Unit),8213 S May St,Chicago,IL,60620,121900,6,2.0,CHI - Auburn Gresham,,3920,1928,8,,,Active,,,http://www.redfin.com/IL/Chicago/8213-S-May-St-60620/home/13230080,MRED,11233932,N,Y,41.7446124,-87.6520822
MLS Listing,,Single Family Residential,8418 S Elizabeth St S,Chicago,IL,60620,297500,4,3.0,CHI - Auburn Gresham,1900,3937,1925,8,157,,Active,,,http://www.redfin.com/IL/Chicago/8418-S-Elizabeth-St-60620/home/13229994,MRED,11233907,N,Y,41.7407845,-87.6549724
MLS Listing,,Single Family Residential,1757 E 71st Pl,Chicago,IL,60649,295900,5,2.5,CHI - South Shore,2000,4826,,8,148,,Active,,,http://www.redfin.com/IL/Chicago/1757-E-71st-Pl-60649/home/13926090,MRED,11233912,N,Y,41.7649905,-87.5814639
MLS Listing,,Single Family Residential,1740 W 100th St,Chicago,IL,60643,499500,5,3.5,CHI - Beverly,2500,6599,1905,8,200,,Active,,,http://www.redfin.com/IL/Chicago/1740-W-100th-St-60643/home/13097418,MRED,11233859,N,Y,41.7122486,-87.6665318
MLS Listing,,Single Family Residential,6127 S Laflin St,Chicago,IL,60636,139900,3,1.5,CHI - West Englewood,1336,3092,1900,8,105,,Active,,,http://www.redfin.com/IL/Chicago/6127-S-Laflin-St-60636/home/13940544,MRED,11233848,N,Y,41.7822986,-87.6616001
MLS Listing,,Single Family Residential,9848 S Damen Ave,Chicago,IL,60643,424900,4,2.0,CHI - Beverly,1952,4961,1923,8,218,,Active,,,http://www.redfin.com/IL/Chicago/9848-S-Damen-Ave-60643/home/13098088,MRED,11233839,N,Y,41.7141566,-87.6724259
MLS Listing,,Multi-Family (2-4 Unit),9329 S Greenwood Ave,Chicago,IL,60619,180000,8,4.0,CHI - Burnside,,,1916,8,,,Active,,,http://www.redfin.com/IL/Chicago/9329-S-Greenwood-Ave-60619/home/13113718,MRED,11227357,N,Y,41.7249355,-87.5970163
MLS Listing,,Multi-Family (2-4 Unit),6530 S Union Ave,Chicago,IL,60621,300000,9,6.0,CHI - Englewood,,,1905,8,,,Active,,,http://www.redfin.com/IL/Chicago/6530-S-Union-Ave-60621/home/13931536,MRED,11233774,N,Y,41.7751602,-87.6429477
MLS Listing,,Single Family Residential,9036 S Blackstone Ave,Chicago,IL,60619,169900,3,2.0,CHI - Calumet Heights,1078,3998,1951,8,158,,Active,,,http://www.redfin.com/IL/Chicago/9036-S-Blackstone-Ave-60619/home/13113116,MRED,11233615,N,Y,41.7302739,-87.5882953
MLS Listing,,Single Family Residential,8158 S Francisco Ave,Chicago,IL,60652,242500,4,2.5,Wrightwood,1876,2613,1968,8,129,,Active,,,http://www.redfin.com/IL/Chicago/8158-S-Francisco-Ave-60652/home/13964517,MRED,11233536,N,Y,41.7446676,-87.6951075
MLS Listing,,Multi-Family (2-4 Unit),8030 S Eberhart Ave,Chicago,IL,60619,289900,4,2.0,CHI - Chatham,,,1922,8,,,Active,,,http://www.redfin.com/IL/Chicago/8030-S-Eberhart-Ave-60619/home/13225860,MRED,11233467,N,Y,41.7483609,-87.6127272
MLS Listing,,Condo/Co-op,5228 S Ingleside Ave #3,Chicago,IL,60615,219995,2,2.0,CHI - Hyde Park,1500,,1918,8,147,422,Active,,,http://www.redfin.com/IL/Chicago/5228-S-Ingleside-Ave-60615/unit-3/home/13950135,MRED,11233430,N,Y,41.799928,-87.603173
MLS Listing,,Condo/Co-op,4281 W 76th St Unit C2-307,Chicago,IL,60652,49900,2,1.5,CHI - West Lawn,750,,1970,9,67,368,Active,,,http://www.redfin.com/IL/Chicago/4281-W-76th-St-60652/unit-C2-307/home/175056592,MRED,11233383,N,Y,41.7545534,-87.7302671
MLS Listing,,Single Family Residential,9211 S Emerald Ave,Chicago,IL,60620,269000,4,2.0,CHI - Washington Heights,2100,3123,1965,9,128,,Active,,,http://www.redfin.com/IL/Chicago/9211-S-Emerald-Ave-60620/home/13106295,MRED,11233376,N,Y,41.7265615,-87.6418684
MLS Listing,,Single Family Residential,1239 E 98th St,Chicago,IL,60628,249900,3,1.5,CHI - Pullman,2400,3898,1951,9,104,,Active,,,http://www.redfin.com/IL/Chicago/1239-E-98th-St-60628/home/13085722,MRED,11233373,N,Y,41.7165334,-87.593119
MLS Listing,,Single Family Residential,7156 S Wolcott Ave,Chicago,IL,60636,129900,6,2.0,CHI - West Englewood,888,,1928,9,146,,Active,,,http://www.redfin.com/IL/Chicago/7156-S-Wolcott-Ave-60636/home/13911928,MRED,11233357,N,Y,41.7631887,-87.6713087
MLS Listing,,Single Family Residential,9359 S Peoria St,Chicago,IL,60620,209900,3,2.0,CHI - Washington Heights,1500,4917,1946,9,140,,Active,,,http://www.redfin.com/IL/Chicago/9359-S-Peoria-St-60620/home/13102877,MRED,11233355,N,Y,41.7231745,-87.6454531
MLS Listing,,Single Family Residential,7356 S Kenwood Ave S,Chicago,IL,60619,125000,3,2.5,CHI - South Shore,1473,3136,1909,9,85,,Active,,,http://www.redfin.com/IL/Chicago/7356-S-Kenwood-Ave-60619/home/13921607,MRED,11233339,N,Y,41.7607107,-87.5923087
MLS Listing,,Multi-Family (2-4 Unit),8129 S Muskegon Ave,Chicago,IL,60617,214900,6,2.0,CHI - South Chicago,,10890,1895,9,,,Active,,,http://www.redfin.com/IL/Chicago/8129-S-Muskegon-Ave-60617/home/13213444,MRED,11233328,N,Y,41.7473635,-87.5549492
MLS Listing,,Single Family Residential,3752 W 68 Pl,Chicago,IL,60629,349900,4,2.5,CHI - West Lawn,1500,,1952,9,233,,Active,,,http://www.redfin.com/IL/Chicago/3752-W-68th-Pl-60629/home/13989477,MRED,11233307,N,Y,41.7689251,-87.7172424
MLS Listing,,Single Family Residential,7822 S Morgan St,Chicago,IL,60620,219999,4,3.0,CHI - Auburn Gresham,2300,3720,1912,9,96,,Active,,,http://www.redfin.com/IL/Chicago/7822-S-Morgan-St-60620/home/13912216,MRED,11233280,N,Y,41.7516663,-87.6492302
MLS Listing,,Condo/Co-op,2860 E 76th St Unit 4C,Chicago,IL,60649,65000,2,1.0,CHI - South Shore,800,,1929,9,81,360,Active,,,http://www.redfin.com/IL/Chicago/2860-E-76th-St-60649/unit-4C/home/176568764,MRED,11233279,N,Y,41.7594008,-87.5549975
MLS Listing,,Single Family Residential,2625 W 89th St,Evergreen Park,IL,60805,179900,3,1.0,Evergreen Park,1100,5279,1941,9,164,,Active,,,http://www.redfin.com/IL/Evergreen-Park/2625-W-89th-St-60805/home/13188232,MRED,11233269,N,Y,41.7316282,-87.6885634
MLS Listing,,Multi-Family (2-4 Unit),1507 E 74th Pl,Chicago,IL,60619,429000,7,3.0,CHI - South Shore,,3484,1923,9,,,Active,,,http://www.redfin.com/IL/Chicago/1507-E-74th-Pl-60619/home/13921038,MRED,11233247,N,Y,41.7594556,-87.5880251
MLS Listing,,Single Family Residential,6828 S Ada St,Chicago,IL,60636,49900,4,1.0,CHI - West Englewood,800,4181,1885,9,62,,Active,,,http://www.redfin.com/IL/Chicago/6828-S-Ada-St-60636/home/13932605,MRED,11216503,N,Y,41.7696048,-87.6581708
MLS Listing,,Single Family Residential,6630 S Loomis Blvd,Chicago,IL,60636,177000,3,2.0,CHI - West Englewood,1408,3101,1905,9,126,,Active,,,http://www.redfin.com/IL/Chicago/6630-S-Loomis-Blvd-60636/home/13933633,MRED,11233146,N,Y,41.7730975,-87.6594328
MLS Listing,,Single Family Residential,6438 S Fairfield Ave,Chicago,IL,60629,259900,4,1.5,CHI - Chicago Lawn,1620,3750,1928,9,160,,Active,,,http://www.redfin.com/IL/Chicago/6438-S-Fairfield-Ave-60629/home/13989196,MRED,11233137,N,Y,41.7760439,-87.6923754
MLS Listing,,Multi-Family (2-4 Unit),4943 S Champlain Ave,Chicago,IL,60615,750000,11,7.0,CHI - Grand Boulevard,,,,9,,,Active,October-10-2021 01:00 PM,October-10-2021 04:00 PM,http://www.redfin.com/IL/Chicago/4943-S-Champlain-Ave-60615/home/13949976,MRED,11233053,N,Y,41.8045582,-87.6097798
MLS Listing,,Multi-Family (2-4 Unit),5615 S Wabash Ave,Chicago,IL,60637,400000,6,4.0,CHI - Washington Park,,,1890,9,,,Active,,,http://www.redfin.com/IL/Chicago/5615-S-Wabash-Ave-60637/home/13943917,MRED,11232967,N,Y,41.7924355,-87.6236706
MLS Listing,,Single Family Residential,642 W 95th St,Chicago,IL,60628,225000,4,2.0,CHI - Washington Heights,1048,3136,1965,9,215,,Active,,,http://www.redfin.com/IL/Chicago/642-W-95th-St-60628/home/13105850,MRED,11232963,N,Y,41.7217147,-87.6399623
MLS Listing,,Multi-Family (2-4 Unit),1421 E 69th Pl,Chicago,IL,60637,195000,8,4.0,CHI - South Shore,,6098,1910,9,,,Active,,,http://www.redfin.com/IL/Chicago/1421-E-69th-Pl-60637/home/175568985,MRED,11232887,N,Y,41.768553,-87.5901862
MLS Listing,,Condo/Co-op,5135 S Kenwood Ave #502,Chicago,IL,60615,239000,3,2.0,CHI - Hyde Park,1400,,1928,9,171,673,Active,,,http://www.redfin.com/IL/Chicago/5135-S-Kenwood-Ave-60615/unit-502/home/13950259,MRED,11232871,N,Y,41.801258,-87.593035
MLS Listing,,Single Family Residential,6509 S Claremont Ave,Chicago,IL,60636,205900,4,1.0,CHI - Chicago Lawn,836,3750,1909,9,246,,Active,,,http://www.redfin.com/IL/Chicago/6509-S-Claremont-Ave-60636/home/13937017,MRED,11232791,N,Y,41.775213,-87.6819396
MLS Listing,,Multi-Family (2-4 Unit),8025 S Evans Ave,Chicago,IL,60619,289000,4,3.0,CHI - Chatham,,3484,1925,9,,,Active,,,http://www.redfin.com/IL/Chicago/8025-S-Evans-Ave-60619/unit-2/home/13225312,MRED,11232752,N,Y,41.74864,-87.6060442
MLS Listing,,Single Family Residential,5134 S Lorel Ave,Chicago,IL,60638,259900,4,1.0,CHI - Garfield Ridge,1430,3750,1957,9,182,,Active,,,http://www.redfin.com/IL/Chicago/5134-S-Lorel-Ave-60638/home/14023820,MRED,11232708,N,Y,41.7991041,-87.7566235
MLS Listing,,Single Family Residential,5253 S Avers Ave,Chicago,IL,60632,259999,2,2.0,CHI - West Elsdon,1091,,1947,9,238,,Active,,,http://www.redfin.com/IL/Chicago/5253-S-Avers-Ave-60632/home/14020223,MRED,11232649,N,Y,41.79732,-87.7192523
MLS Listing,,Single Family Residential,3550 W 83rd Pl,Chicago,IL,60652,319900,5,2.0,CHI - Ashburn,1145,3781,1960,9,279,,Active,October-9-2021 12:00 PM,October-9-2021 02:00 PM,http://www.redfin.com/IL/Chicago/3550-W-83rd-Pl-60652/home/13965197,MRED,11232613,N,Y,41.7416479,-87.7114695
MLS Listing,,Single Family Residential,5118 S Springfield Ave,Chicago,IL,60632,230000,2,1.0,CHI - West Elsdon,3125,,1957,9,74,,Active,,,http://www.redfin.com/IL/Chicago/5118-S-Springfield-Ave-60632/home/14020081,MRED,11232601,N,Y,41.7999753,-87.7212507
MLS Listing,,Single Family Residential,4059 W 59th St,Chicago,IL,60629,299900,3,3.0,CHI - West Lawn,1200,4220,,9,250,,Active,,,http://www.redfin.com/IL/Chicago/4059-W-59th-St-60629/home/14004178,MRED,11232567,N,Y,41.7857077,-87.7252077
MLS Listing,,Condo/Co-op,4850 S Lake Park Ave #1101,Chicago,IL,60615,60000,3,1.5,CHI - Kenwood,1233,,1970,9,49,1252,Active,,,http://www.redfin.com/IL/Chicago/4850-S-Lake-Park-Ave-60615/unit-1101/home/144787222,MRED,11232572,N,Y,41.8068309,-87.5905143
MLS Listing,,Multi-Family (2-4 Unit),7640 S Throop St,Chicago,IL,60620,335000,7,3.0,CHI - Auburn Gresham,,,1930,9,,,Active,,,http://www.redfin.com/IL/Chicago/7640-S-Throop-St-60620/unit-1/home/13913595,MRED,11226038,N,Y,41.7547515,-87.6557046
MLS Listing,,Single Family Residential,8430 S Baltimore Ave,Chicago,IL,60617,47997,2,2.0,CHI - South Chicago,900,3023,1892,10,53,,Active,,,http://www.redfin.com/IL/Chicago/8430-S-Baltimore-Ave-60617/home/13213267,MRED,11232253,N,Y,41.7422517,-87.5521492
MLS Listing,,Townhouse,9143 S Cottage Grove Ave Unit A,Chicago,IL,60619,139900,4,2.0,CHI - Chatham,1260,,1960,10,111,,Active,,,http://www.redfin.com/IL/Chicago/9143-S-Cottage-Grove-Ave-60619/unit-A/home/13113653,MRED,11232234,N,Y,41.7280975,-87.6041732
MLS Listing,,Multi-Family (2-4 Unit),8112 S Exchange Ave,Chicago,IL,60617,230000,8,3.0,CHI - South Chicago,,,1895,10,,,Active,,,http://www.redfin.com/IL/Chicago/8112-S-Exchange-Ave-60617/unit-1ST/home/13214111,MRED,11232193,N,Y,41.7478008,-87.5531244
MLS Listing,,Single Family Residential,4834 S Harding Ave,Chicago,IL,60632,329000,8,3.0,CHI - Archer Heights,3980,3789,1895,10,83,,Active,,,http://www.redfin.com/IL/Chicago/4834-S-Harding-Ave-60632/unit-1/home/14021523,MRED,11232200,N,Y,41.8050312,-87.7225143
MLS Listing,,Condo/Co-op,5471 S Hyde Park Blvd Unit 8B,Chicago,IL,60615,229000,3,2.0,CHI - Hyde Park,1400,,1977,10,164,1072,Active,,,http://www.redfin.com/IL/Chicago/5471-S-Hyde-Park-Blvd-60615/unit-8B/home/13946653,MRED,11232177,N,Y,41.7961296,-87.5837119
MLS Listing,,Single Family Residential,8614 S Morgan St,Chicago,IL,60620,259000,7,2.5,CHI - Auburn Gresham,2000,3249,1923,10,130,,Active,,,http://www.redfin.com/IL/Chicago/8614-S-Morgan-St-60620/home/13227879,MRED,11232167,N,Y,41.7373442,-87.6487581
MLS Listing,,Single Family Residential,9926 S Sangamon St,Chicago,IL,60643,265000,3,1.5,Longwood Manor,2300,4094,1957,10,115,,Active,,,http://www.redfin.com/IL/Chicago/9926-S-Sangamon-St-60643/home/13093749,MRED,11232129,N,Y,41.7132896,-87.6469563
MLS Listing,,Multi-Family (2-4 Unit),5244 S Loomis Blvd,Chicago,IL,60609,170000,4,2.0,CHI - New City,,3049,1928,10,,,Active,,,http://www.redfin.com/IL/Chicago/5244-S-Loomis-Blvd-60609/home/13953828,MRED,11232088,N,Y,41.7981899,-87.6600974
MLS Listing,,Single Family Residential,8505 S Karlov Ave,Chicago,IL,60652,265000,4,2.5,CHI - Ashburn,1482,,1962,10,179,,Active,,,http://www.redfin.com/IL/Chicago/8505-S-Karlov-Ave-60652/home/13967488,MRED,11232085,N,Y,41.7382356,-87.7236686
MLS Listing,,Condo/Co-op,1700 E 56th St #607,Chicago,IL,60637,220000,2,2.0,CHI - Hyde Park,,,1968,10,,821,Active,,,http://www.redfin.com/IL/Chicago/1700-E-56th-St-60637/unit-607/home/13947492,MRED,11232013,N,Y,41.7938289,-87.5832152
MLS Listing,,Single Family Residential,5026 S Lavergne Ave,Chicago,IL,60638,349900,5,2.5,CHI - Garfield Ridge,,,1955,10,,,Active,,,http://www.redfin.com/IL/Chicago/5026-S-Lavergne-Ave-60638/home/14025688,MRED,11231969,N,Y,41.8012675,-87.7481631
MLS Listing,,Single Family Residential,6429 S Marshfield Ave,Chicago,IL,60636,189900,5,2.0,CHI - West Englewood,,3075,1905,10,,,Active,,,http://www.redfin.com/IL/Chicago/6429-S-Marshfield-Ave-60636/home/13935142,MRED,11231921,N,Y,41.7767758,-87.6650677
MLS Listing,,Single Family Residential,5461 S University Ave,Chicago,IL,60615,464000,3,2.5,CHI - Hyde Park,2000,2291,1920,10,232,,Active,,,http://www.redfin.com/IL/Chicago/5461-S-University-Ave-60615/home/113124531,MRED,11231906,N,Y,41.7962698,-87.5978426
MLS Listing,,Multi-Family (2-4 Unit),8149 S Luella Ave,Chicago,IL,60617,370000,7,4.0,CHI - South Chicago,,5662,1928,10,,,Active,,,http://www.redfin.com/IL/Chicago/8149-S-Luella-Ave-60617/home/13219432,MRED,11231800,N,Y,41.746638,-87.569453
MLS Listing,,Single Family Residential,3536 W 81st Pl,Chicago,IL,60652,269900,4,2.0,CHI - Ashburn,1453,4408,1952,10,186,,Active,,,http://www.redfin.com/IL/Chicago/3536-W-81st-Pl-60652/home/13966688,MRED,11231784,N,Y,41.7453327,-87.7110847
MLS Listing,,Multi-Family (2-4 Unit),4917 S Prairie Ave,Chicago,IL,60615,1099000,11,8.0,Bronzeville,,,1908,10,,,Active,,,http://www.redfin.com/IL/Chicago/4917-S-Prairie-Ave-60615/home/13952558,MRED,11231778,N,Y,41.8051544,-87.61912
MLS Listing,,Single Family Residential,9705 S Maplewood Ave,Evergreen Park,IL,60805,289999,3,2.0,Evergreen Park,1269,4917,1957,10,229,,Active,October-9-2021 01:00 PM,October-9-2021 03:00 PM,http://www.redfin.com/IL/Evergreen-Park/9705-S-Maplewood-Ave-60805/home/13160146,MRED,11231726,N,Y,41.7169518,-87.6857137
MLS Listing,,Single Family Residential,6344 S Rockwell St,Chicago,IL,60629,86500,3,1.0,Marquette Park,1202,3528,1925,10,72,,Active,,,http://www.redfin.com/IL/Chicago/6344-S-Rockwell-St-60629/home/13987884,MRED,11231711,N,Y,41.777797,-87.6887559
MLS Listing,,Vacant Land,5152 S Hoyne Ave,Chicago,IL,60609,15000,,,CHI - New City,,,,10,,,Active,,,http://www.redfin.com/IL/Chicago/5152-S-Hoyne-Ave-60609/home/17146191,MRED,11231702,N,Y,41.799602,-87.6771998
MLS Listing,,Single Family Residential,7958 S Kilbourn Ave,Chicago,IL,60652,229900,3,1.0,CHI - Ashburn,970,4303,1954,10,237,,Active,October-9-2021 12:00 PM,October-9-2021 03:00 PM,http://www.redfin.com/IL/Chicago/7958-S-Kilbourn-Ave-60652/home/13970684,MRED,11231692,N,Y,41.7475012,-87.7342872
MLS Listing,,Single Family Residential,7322 S Blackstone Ave,Chicago,IL,60619,183000,4,2.5,CHI - South Shore,2404,6098,1918,10,76,,Active,,,http://www.redfin.com/IL/Chicago/7322-S-Blackstone-Ave-60619/home/13920991,MRED,11231664,N,Y,41.7616847,-87.5887198
MLS Listing,,Vacant Land,7259 S Aberdeen St,Chicago,IL,60621,15000,,,CHI - Englewood,,4356,,10,,,Active,,,http://www.redfin.com/IL/Chicago/7259-S-Aberdeen-St-60621/home/18957927,MRED,11231646,N,Y,41.761601,-87.65125
MLS Listing,,Single Family Residential,2500 E 91st St,Chicago,IL,60617,219900,4,1.5,CHI - Calumet Heights,,4081,1954,10,,,Active,,,http://www.redfin.com/IL/Chicago/2500-E-91st-St-60617/home/13043202,MRED,11231538,N,Y,41.7301349,-87.5632035
MLS Listing,,Single Family Residential,6522 S Kildare Ave,Chicago,IL,60629,220000,4,2.0,CHI - West Lawn,960,,1955,10,229,,Active,,,http://www.redfin.com/IL/Chicago/6522-S-Kildare-Ave-60629/home/13993263,MRED,11231424,N,Y,41.7742314,-87.7302094
